,Community Name,Community Code,Venue Name,Venue ID,Lat,Long,Categories
1,MANCHESTER INDUSTRIAL,MNI,Phil & Sebastian Coffee Roaster,4ca4d97f7f84224b96e5d058,51.00042560750507,-114.0732895713657,"[{'icon': {'prefix': 'https://ss3.4sqi.net/img/categories_v2/food/cafe_', 'suffix': '.png'}, 'primary': True, 'pluralName': 'Cafés', 'name': 'Café', 'id': '4bf58dd8d48988d16d941735', 'shortName': 'Café'}]"
2,MANCHESTER INDUSTRIAL,MNI,Yann Haute Patisserie,4b4a2bbbf964a5203c7d26e3,51.03224624768667,-114.07067060845887,"[{'icon': {'prefix': 'https://ss3.4sqi.net/img/categories_v2/food/bakery_', 'suffix': '.png'}, 'primary': True, 'pluralName': 'Bakeries', 'name': 'Bakery', 'id': '4bf58dd8d48988d16a941735', 'shortName': 'Bakery'}]"
3,MANCHESTER INDUSTRIAL,MNI,Sidewalk Citizen Bakery,4daf1e3f6a23e6c93498b0f8,51.005044378182895,-114.06708344500097,"[{'icon': {'prefix': 'https://ss3.4sqi.net/img/categories_v2/food/bagels_', 'suffix': '.png'}, 'primary': True, 'pluralName': 'Bagel Shops', 'name': 'Bagel Shop', 'id': '4bf58dd8d48988d179941735', 'shortName': 'Bagels'}]"
5,MANCHESTER INDUSTRIAL,MNI,The Glencoe Club,4b69cf87f964a520a8b52be3,51.028676173377974,-114.08062574473178,"[{'icon': {'prefix': 'https://ss3.4sqi.net/img/categories_v2/shops/sports_outdoors_', 'suffix': '.png'}, 'primary': True, 'pluralName': 'Athletics & Sports', 'name': 'Athletics & Sports', 'id': '4f4528bc4b90abdf24c9de85', 'shortName': 'Athletics & Sports'}]"
6,MANCHESTER INDUSTRIAL,MNI,Bolero,4bd7626935aad13a8fc58ef3,50.992366574675366,-114.07089722628092,"[{'icon': {'prefix': 'https://ss3.4sqi.net/img/categories_v2/food/argentinian_', 'suffix': '.png'}, 'primary': True, 'pluralName': 'Brazilian Restaurants', 'name': 'Brazilian Restaurant', 'id': '4bf58dd8d48988d16b941735', 'shortName': 'Brazilian'}]"
7,MANCHESTER INDUSTRIAL,MNI,Smuggler's Inn,4b0586e7f964a5202f7422e3,50.99202861339054,-114.07074226894635,"[{'icon': {'prefix': 'https://ss3.4sqi.net/img/categories_v2/food/steakhouse_', 'suffix': '.png'}, 'primary': True, 'pluralName': 'Steakhouses', 'name': 'Steakhouse', 'id': '4bf58dd8d48988d1cc941735', 'shortName': 'Steakhouse'}]"
8,MANCHESTER INDUSTRIAL,MNI,The Keg Steakhouse + Bar,4b0586e7f964a520e07322e3,50.99054230954866,-114.07095336900285,"[{'icon': {'prefix': 'https://ss3.4sqi.net/img/categories_v2/food/steakhouse_', 'suffix': '.png'}, 'primary': True, 'pluralName': 'Steakhouses', 'name': 'Steakhouse', 'id': '4bf58dd8d48988d1cc941735', 'shortName': 'Steakhouse'}]"
10,MANCHESTER INDUSTRIAL,MNI,Purple Perk,4b0336a9f964a520954d22e3,51.03279921934084,-114.07151860192121,"[{'icon': {'prefix': 'https://ss3.4sqi.net/img/categories_v2/food/coffeeshop_', 'suffix': '.png'}, 'primary': True, 'pluralName': 'Coffee Shops', 'name': 'Coffee Shop', 'id': '4bf58dd8d48988d1e0931735', 'shortName': 'Coffee Shop'}]"
11,MANCHESTER INDUSTRIAL,MNI,Tango Bistro,4ba56b9cf964a5205e0539e3,50.99217345314099,-114.07091905803837,"[{'icon': {'prefix': 'https://ss3.4sqi.net/img/categories_v2/food/tapas_', 'suffix': '.png'}, 'primary': True, 'pluralName': 'Tapas Restaurants', 'name': 'Tapas Restaurant', 'id': '4bf58dd8d48988d1db931735', 'shortName': 'Tapas'}]"
13,MANCHESTER INDUSTRIAL,MNI,La Boulangerie,4f4d2b7ee4b081be1cf50c58,51.03088107768488,-114.07166927121072,"[{'icon': {'prefix': 'https://ss3.4sqi.net/img/categories_v2/food/bakery_', 'suffix': '.png'}, 'primary': True, 'pluralName': 'Bakeries', 'name': 'Bakery', 'id': '4bf58dd8d48988d16a941735', 'shortName': 'Bakery'}]"
22,MANCHESTER INDUSTRIAL,MNI,Red Lobster,4b68de49f964a520ef902be3,50.998557,-114.070882,"[{'icon': {'prefix': 'https://ss3.4sqi.net/img/categories_v2/food/seafood_', 'suffix': '.png'}, 'primary': True, 'pluralName': 'Seafood Restaurants', 'name': 'Seafood Restaurant', 'id': '4bf58dd8d48988d1ce941735', 'shortName': 'Seafood'}]"
25,MANCHESTER INDUSTRIAL,MNI,Open Sesame,4b66201df964a52016152be3,50.99234191842781,-114.07093999480433,"[{'icon': {'prefix': 'https://ss3.4sqi.net/img/categories_v2/food/asian_', 'suffix': '.png'}, 'primary': True, 'pluralName': 'Asian Restaurants', 'name': 'Asian Restaurant', 'id': '4bf58dd8d48988d142941735', 'shortName': 'Asian'}]"
27,MANCHESTER INDUSTRIAL,MNI,Cravings Market Restaurant,4b50dba0f964a5209b3527e3,50.98889542405871,-114.06408528595615,"[{'icon': {'prefix': 'https://ss3.4sqi.net/img/categories_v2/food/default_', 'suffix': '.png'}, 'primary': True, 'pluralName': 'American Restaurants', 'name': 'American Restaurant', 'id': '4bf58dd8d48988d14e941735', 'shortName': 'American'}]"
28,MANCHESTER INDUSTRIAL,MNI,The Tea Factory,518edaf5498efad5436968f2,51.03631387069536,-114.07131096509094,"[{'icon': {'prefix': 'https://ss3.4sqi.net/img/categories_v2/food/tearoom_', 'suffix': '.png'}, 'primary': True, 'pluralName': 'Tea Rooms', 'name': 'Tea Room', 'id': '4bf58dd8d48988d1dc931735', 'shortName': 'Tea Room'}]"
34,MANCHESTER INDUSTRIAL,MNI,Ricky's,4bc9cbccb6c49c74acf48e91,50.997047045383525,-114.0702184608036,"[{'icon': {'prefix': 'https://ss3.4sqi.net/img/categories_v2/food/breakfast_', 'suffix': '.png'}, 'primary': True, 'pluralName': 'Breakfast Spots', 'name': 'Breakfast Spot', 'id': '4bf58dd8d48988d143941735', 'shortName': 'Breakfast'}]"
35,MANCHESTER INDUSTRIAL,MNI,Green's,4c0e5390d64c0f477af5275d,51.000401,-114.047192,"[{'icon': {'prefix': 'https://ss3.4sqi.net/img/categories_v2/food/default_', 'suffix': '.png'}, 'primary': True, 'pluralName': 'American Restaurants', 'name': 'American Restaurant', 'id': '4bf58dd8d48988d14e941735', 'shortName': 'American'}]"
36,MANCHESTER INDUSTRIAL,MNI,Dutch Cash & Carry,4b50c00ff964a520c73027e3,51.020800989711205,-114.02233600616455,"[{'icon': {'prefix': 'https://ss3.4sqi.net/img/categories_v2/food/default_', 'suffix': '.png'}, 'primary': True, 'pluralName': 'Restaurants', 'name': 'Restaurant', 'id': '4bf58dd8d48988d1c4941735', 'shortName': 'Restaurant'}]"
38,EAST FAIRVIEW INDUSTRIAL,EFV,The Keg Steakhouse + Bar,4b0586e7f964a520e07322e3,50.99054230954866,-114.07095336900285,"[{'icon': {'prefix': 'https://ss3.4sqi.net/img/categories_v2/food/steakhouse_', 'suffix': '.png'}, 'primary': True, 'pluralName': 'Steakhouses', 'name': 'Steakhouse', 'id': '4bf58dd8d48988d1cc941735', 'shortName': 'Steakhouse'}]"
39,EAST FAIRVIEW INDUSTRIAL,EFV,Smuggler's Inn,4b0586e7f964a5202f7422e3,50.99202861339054,-114.07074226894635,"[{'icon': {'prefix': 'https://ss3.4sqi.net/img/categories_v2/food/steakhouse_', 'suffix': '.png'}, 'primary': True, 'pluralName': 'Steakhouses', 'name': 'Steakhouse', 'id': '4bf58dd8d48988d1cc941735', 'shortName': 'Steakhouse'}]"
40,EAST FAIRVIEW INDUSTRIAL,EFV,Bolero,4bd7626935aad13a8fc58ef3,50.992366574675366,-114.07089722628092,"[{'icon': {'prefix': 'https://ss3.4sqi.net/img/categories_v2/food/argentinian_', 'suffix': '.png'}, 'primary': True, 'pluralName': 'Brazilian Restaurants', 'name': 'Brazilian Restaurant', 'id': '4bf58dd8d48988d16b941735', 'shortName': 'Brazilian'}]"
41,EAST FAIRVIEW INDUSTRIAL,EFV,Phil & Sebastian Coffee Roaster,4ca4d97f7f84224b96e5d058,51.00042560750507,-114.0732895713657,"[{'icon': {'prefix': 'https://ss3.4sqi.net/img/categories_v2/food/cafe_', 'suffix': '.png'}, 'primary': True, 'pluralName': 'Cafés', 'name': 'Café', 'id': '4bf58dd8d48988d16d941735', 'shortName': 'Café'}]"
43,EAST FAIRVIEW INDUSTRIAL,EFV,Fratello Analog Cafe,4dbc72d10cb691071ca3d001,50.984817516242686,-114.05143747194398,"[{'icon': {'prefix': 'https://ss3.4sqi.net/img/categories_v2/food/coffeeshop_', 'suffix': '.png'}, 'primary': True, 'pluralName': 'Coffee Shops', 'name': 'Coffee Shop', 'id': '4bf58dd8d48988d1e0931735', 'shortName': 'Coffee Shop'}]"
45,EAST FAIRVIEW INDUSTRIAL,EFV,Tango Bistro,4ba56b9cf964a5205e0539e3,50.99217345314099,-114.07091905803837,"[{'icon': {'prefix': 'https://ss3.4sqi.net/img/categories_v2/food/tapas_', 'suffix': '.png'}, 'primary': True, 'pluralName': 'Tapas Restaurants', 'name': 'Tapas Restaurant', 'id': '4bf58dd8d48988d1db931735', 'shortName': 'Tapas'}]"
48,EAST FAIRVIEW INDUSTRIAL,EFV,Sidewalk Citizen Bakery,4daf1e3f6a23e6c93498b0f8,51.005044378182895,-114.06708344500097,"[{'icon': {'prefix': 'https://ss3.4sqi.net/img/categories_v2/food/bagels_', 'suffix': '.png'}, 'primary': True, 'pluralName': 'Bagel Shops', 'name': 'Bagel Shop', 'id': '4bf58dd8d48988d179941735', 'shortName': 'Bagels'}]"
51,EAST FAIRVIEW INDUSTRIAL,EFV,Cheesecake Cafe,4b915ccef964a5204bb633e3,50.98573000118743,-114.07079741989092,"[{'icon': {'prefix': 'https://ss3.4sqi.net/img/categories_v2/food/default_', 'suffix': '.png'}, 'primary': True, 'pluralName': 'American Restaurants', 'name': 'American Restaurant', 'id': '4bf58dd8d48988d14e941735', 'shortName': 'American'}]"
59,EAST FAIRVIEW INDUSTRIAL,EFV,Tom's House of Pizza,4b5ca0b8f964a520c93a29e3,50.98530851759652,-114.07089644302425,"[{'icon': {'prefix': 'https://ss3.4sqi.net/img/categories_v2/food/pizza_', 'suffix': '.png'}, 'primary': True, 'pluralName': 'Pizza Places', 'name': 'Pizza Place', 'id': '4bf58dd8d48988d1ca941735', 'shortName': 'Pizza'}]"
60,EAST FAIRVIEW INDUSTRIAL,EFV,Cravings Market Restaurant,4b50dba0f964a5209b3527e3,50.98889542405871,-114.06408528595615,"[{'icon': {'prefix': 'https://ss3.4sqi.net/img/categories_v2/food/default_', 'suffix': '.png'}, 'primary': True, 'pluralName': 'American Restaurants', 'name': 'American Restaurant', 'id': '4bf58dd8d48988d14e941735', 'shortName': 'American'}]"
63,EAST FAIRVIEW INDUSTRIAL,EFV,Open Sesame,4b66201df964a52016152be3,50.99234191842781,-114.07093999480433,"[{'icon': {'prefix': 'https://ss3.4sqi.net/img/categories_v2/food/asian_', 'suffix': '.png'}, 'primary': True, 'pluralName': 'Asian Restaurants', 'name': 'Asian Restaurant', 'id': '4bf58dd8d48988d142941735', 'shortName': 'Asian'}]"
64,EAST FAIRVIEW INDUSTRIAL,EFV,Red Lobster,4b68de49f964a520ef902be3,50.998557,-114.070882,"[{'icon': {'prefix': 'https://ss3.4sqi.net/img/categories_v2/food/seafood_', 'suffix': '.png'}, 'primary': True, 'pluralName': 'Seafood Restaurants', 'name': 'Seafood Restaurant', 'id': '4bf58dd8d48988d1ce941735', 'shortName': 'Seafood'}]"
79,EAST FAIRVIEW INDUSTRIAL,EFV,Ricky's All Day Grill,4bb78ab653649c7468d745fb,50.978732353288954,-114.04162593967362,"[{'icon': {'prefix': 'https://ss3.4sqi.net/img/categories_v2/food/default_', 'suffix': '.png'}, 'primary': True, 'pluralName': 'American Restaurants', 'name': 'American Restaurant', 'id': '4bf58dd8d48988d14e941735', 'shortName': 'American'}]"
80,EAST FAIRVIEW INDUSTRIAL,EFV,Sobeys - Riverbend,4b6b1c84f964a52089f32be3,50.97836991414743,-114.0139283806908,"[{'icon': {'prefix': 'https://ss3.4sqi.net/img/categories_v2/shops/food_grocery_', 'suffix': '.png'}, 'primary': True, 'pluralName': 'Grocery Stores', 'name': 'Grocery Store', 'id': '4bf58dd8d48988d118951735', 'shortName': 'Grocery Store'}]"
84,EAST FAIRVIEW INDUSTRIAL,EFV,Yum Bakery,4df139dfe4cda09e6d994d38,50.98501350696791,-114.05135952671647,"[{'icon': {'prefix': 'https://ss3.4sqi.net/img/categories_v2/food/bakery_', 'suffix': '.png'}, 'primary': True, 'pluralName': 'Bakeries', 'name': 'Bakery', 'id': '4bf58dd8d48988d16a941735', 'shortName': 'Bakery'}]"
85,EAST FAIRVIEW INDUSTRIAL,EFV,Schanks Sports Grill,4b0586ebf964a520667522e3,50.969442963433096,-114.07347174771215,"[{'icon': {'prefix': 'https://ss3.4sqi.net/img/categories_v2/food/breakfast_', 'suffix': '.png'}, 'primary': True, 'pluralName': 'Breakfast Spots', 'name': 'Breakfast Spot', 'id': '4bf58dd8d48988d143941735', 'shortName': 'Breakfast'}]"
88,CANADA OLYMPIC PARK,COP,Angels Drive In,4bad5391f964a52075463be3,51.09475752425708,-114.21124940465485,"[{'icon': {'prefix': 'https://ss3.4sqi.net/img/categories_v2/food/diner_', 'suffix': '.png'}, 'primary': True, 'pluralName': 'Diners', 'name': 'Diner', 'id': '4bf58dd8d48988d147941735', 'shortName': 'Diner'}]"
90,CANADA OLYMPIC PARK,COP,Euphoria Cafe,4d7fbfba4219a1cdd29f7ad3,51.10361184964671,-114.16510169927415,"[{'icon': {'prefix': 'https://ss3.4sqi.net/img/categories_v2/food/cafe_', 'suffix': '.png'}, 'primary': True, 'pluralName': 'Cafés', 'name': 'Café', 'id': '4bf58dd8d48988d16d941735', 'shortName': 'Café'}]"
91,CANADA OLYMPIC PARK,COP,Cadence Coffee,4b1d2499f964a520350c24e3,51.085703708631584,-114.18054650037912,"[{'icon': {'prefix': 'https://ss3.4sqi.net/img/categories_v2/food/coffeeshop_', 'suffix': '.png'}, 'primary': True, 'pluralName': 'Coffee Shops', 'name': 'Coffee Shop', 'id': '4bf58dd8d48988d1e0931735', 'shortName': 'Coffee Shop'}]"
93,CANADA OLYMPIC PARK,COP,Fergus & Bix Restaurant and Beer Market,4b198b5bf964a52037df23e3,51.05995283111409,-114.21211131819531,"[{'icon': {'prefix': 'https://ss3.4sqi.net/img/categories_v2/food/default_', 'suffix': '.png'}, 'primary': True, 'pluralName': 'Restaurants', 'name': 'Restaurant', 'id': '4bf58dd8d48988d1c4941735', 'shortName': 'Restaurant'}]"
94,CANADA OLYMPIC PARK,COP,Cafe MoMoKo,4b6b7cacf964a520e50b2ce3,51.06351648939471,-114.19470374002124,"[{'icon': {'prefix': 'https://ss3.4sqi.net/img/categories_v2/food/default_', 'suffix': '.png'}, 'primary': True, 'pluralName': 'Restaurants', 'name': 'Restaurant', 'id': '4bf58dd8d48988d1c4941735', 'shortName': 'Restaurant'}]"
95,CANADA OLYMPIC PARK,COP,A Ladybug and Cafe,4b0586e9f964a520937422e3,51.04134019638049,-114.21250662761257,"[{'icon': {'prefix': 'https://ss3.4sqi.net/img/categories_v2/food/coffeeshop_', 'suffix': '.png'}, 'primary': True, 'pluralName': 'Coffee Shops', 'name': 'Coffee Shop', 'id': '4bf58dd8d48988d1e0931735', 'shortName': 'Coffee Shop'}]"
96,CANADA OLYMPIC PARK,COP,Dell Cafe,4ba51b6ff964a52014de38e3,51.08956861369545,-114.20079548771108,"[{'icon': {'prefix': 'https://ss3.4sqi.net/img/categories_v2/food/cafe_', 'suffix': '.png'}, 'primary': True, 'pluralName': 'Cafés', 'name': 'Café', 'id': '4bf58dd8d48988d16d941735', 'shortName': 'Café'}]"
97,CANADA OLYMPIC PARK,COP,Cora’s Breakfast & Lunch,4b0586ecf964a520d07522e3,51.099576169489474,-114.14448953099436,"[{'icon': {'prefix': 'https://ss3.4sqi.net/img/categories_v2/food/breakfast_', 'suffix': '.png'}, 'primary': True, 'pluralName': 'Breakfast Spots', 'name': 'Breakfast Spot', 'id': '4bf58dd8d48988d143941735', 'shortName': 'Breakfast'}]"
99,CANADA OLYMPIC PARK,COP,Diner Deluxe Aspen,5393e8ae498e14bd1c94c3df,51.03963609884468,-114.20919286144175,"[{'icon': {'prefix': 'https://ss3.4sqi.net/img/categories_v2/food/default_', 'suffix': '.png'}, 'primary': True, 'pluralName': 'Restaurants', 'name': 'Restaurant', 'id': '4bf58dd8d48988d1c4941735', 'shortName': 'Restaurant'}]"
103,CANADA OLYMPIC PARK,COP,Good Earth Coffeehouse & Bakery,4be5aada2457a593facbab15,51.03973937902903,-114.20820011218262,"[{'icon': {'prefix': 'https://ss3.4sqi.net/img/categories_v2/food/coffeeshop_', 'suffix': '.png'}, 'primary': True, 'pluralName': 'Coffee Shops', 'name': 'Coffee Shop', 'id': '4bf58dd8d48988d1e0931735', 'shortName': 'Coffee Shop'}]"
116,CANADA OLYMPIC PARK,COP,Matador Pizza,4b0724a5f964a52018f822e3,51.09278046998466,-114.15353548414825,"[{'icon': {'prefix': 'https://ss3.4sqi.net/img/categories_v2/food/pizza_', 'suffix': '.png'}, 'primary': True, 'pluralName': 'Pizza Places', 'name': 'Pizza Place', 'id': '4bf58dd8d48988d1ca941735', 'shortName': 'Pizza'}]"
117,CANADA OLYMPIC PARK,COP,Food Court,4b6b830df964a520440d2ce3,51.08512107883832,-114.15404720669298,"[{'icon': {'prefix': 'https://ss3.4sqi.net/img/categories_v2/shops/food_foodcourt_', 'suffix': '.png'}, 'primary': True, 'pluralName': 'Food Courts', 'name': 'Food Court', 'id': '4bf58dd8d48988d120951735', 'shortName': 'Food Court'}]"
124,CANADA OLYMPIC PARK,COP,Tuscany Subway,4b537001f964a520d99c27e3,51.124135069034104,-114.24840470929412,"[{'icon': {'prefix': 'https://ss3.4sqi.net/img/categories_v2/food/deli_', 'suffix': '.png'}, 'primary': True, 'pluralName': 'Sandwich Places', 'name': 'Sandwich Place', 'id': '4bf58dd8d48988d1c5941735', 'shortName': 'Sandwiches'}]"
130,CANADA OLYMPIC PARK,COP,Sobeys - Strathcona Square,4b2d92e1f964a52010d924e3,51.04797928678446,-114.18644643649186,"[{'icon': {'prefix': 'https://ss3.4sqi.net/img/categories_v2/shops/food_grocery_', 'suffix': '.png'}, 'primary': True, 'pluralName': 'Grocery Stores', 'name': 'Grocery Store', 'id': '4bf58dd8d48988d118951735', 'shortName': 'Grocery Store'}]"
134,CANADA OLYMPIC PARK,COP,Subway Crowfoot,4b7c5091f964a520ca8b2fe3,51.12568526383344,-114.20798595553288,"[{'icon': {'prefix': 'https://ss3.4sqi.net/img/categories_v2/food/deli_', 'suffix': '.png'}, 'primary': True, 'pluralName': 'Sandwich Places', 'name': 'Sandwich Place', 'id': '4bf58dd8d48988d1c5941735', 'shortName': 'Sandwiches'}]"
135,CANADA OLYMPIC PARK,COP,Andaro's Pizza,4fff6062e4b0092e51e216e1,51.06637908927422,-114.21891191070492,"[{'icon': {'prefix': 'https://ss3.4sqi.net/img/categories_v2/food/pizza_', 'suffix': '.png'}, 'primary': True, 'pluralName': 'Pizza Places', 'name': 'Pizza Place', 'id': '4bf58dd8d48988d1ca941735', 'shortName': 'Pizza'}]"
136,CANADA OLYMPIC PARK,COP,EggsOasis,5113d4c9e4b0345565e6b5c9,51.12698607157032,-114.19849691646715,"[{'icon': {'prefix': 'https://ss3.4sqi.net/img/categories_v2/food/breakfast_', 'suffix': '.png'}, 'primary': True, 'pluralName': 'Breakfast Spots', 'name': 'Breakfast Spot', 'id': '4bf58dd8d48988d143941735', 'shortName': 'Breakfast'}]"
138,FOOTHILLS,FHI,Shawarma Palace,4bf0b12e21072d7fc449208b,51.037969176718356,-113.97908643380909,"[{'icon': {'prefix': 'https://ss3.4sqi.net/img/categories_v2/food/falafel_', 'suffix': '.png'}, 'primary': True, 'pluralName': 'Falafel Restaurants', 'name': 'Falafel Restaurant', 'id': '4bf58dd8d48988d10b941735', 'shortName': 'Falafel'}]"
139,FOOTHILLS,FHI,Pacific Hut Restaurant,4b0586ecf964a520c07522e3,51.03692238262008,-113.98876716446624,"[{'icon': {'prefix': 'https://ss3.4sqi.net/img/categories_v2/food/asian_', 'suffix': '.png'}, 'primary': True, 'pluralName': 'Asian Restaurants', 'name': 'Asian Restaurant', 'id': '4bf58dd8d48988d142941735', 'shortName': 'Asian'}]"
144,FOOTHILLS,FHI,Blackfoot Diner,4b51e6ddf964a5206b5a27e3,51.03646549861947,-114.02038675227006,"[{'icon': {'prefix': 'https://ss3.4sqi.net/img/categories_v2/food/diner_', 'suffix': '.png'}, 'primary': True, 'pluralName': 'Diners', 'name': 'Diner', 'id': '4bf58dd8d48988d147941735', 'shortName': 'Diner'}]"
147,FOOTHILLS,FHI,Fratello Analog Cafe,4dbc72d10cb691071ca3d001,50.984817516242686,-114.05143747194398,"[{'icon': {'prefix': 'https://ss3.4sqi.net/img/categories_v2/food/coffeeshop_', 'suffix': '.png'}, 'primary': True, 'pluralName': 'Coffee Shops', 'name': 'Coffee Shop', 'id': '4bf58dd8d48988d1e0931735', 'shortName': 'Coffee Shop'}]"
161,FOOTHILLS,FHI,Road King Truck Stop,4bbff94f74a9a5938185cff6,51.010588836292335,-114.00377343261962,"[{'icon': {'prefix': 'https://ss3.4sqi.net/img/categories_v2/food/diner_', 'suffix': '.png'}, 'primary': True, 'pluralName': 'Diners', 'name': 'Diner', 'id': '4bf58dd8d48988d147941735', 'shortName': 'Diner'}]"
170,FOOTHILLS,FHI,Edo Japan,4c5066cf371520a1a35443c1,50.99845016933836,-113.98129284381866,"[{'icon': {'prefix': 'https://ss3.4sqi.net/img/categories_v2/food/japanese_', 'suffix': '.png'}, 'primary': True, 'pluralName': 'Japanese Restaurants', 'name': 'Japanese Restaurant', 'id': '4bf58dd8d48988d111941735', 'shortName': 'Japanese'}]"
171,FOOTHILLS,FHI,Taco Time,4c03f31b310fc9b68e93c661,50.99860007571267,-113.98212842626005,"[{'icon': {'prefix': 'https://ss3.4sqi.net/img/categories_v2/food/mexican_', 'suffix': '.png'}, 'primary': True, 'pluralName': 'Mexican Restaurants', 'name': 'Mexican Restaurant', 'id': '4bf58dd8d48988d1c1941735', 'shortName': 'Mexican'}]"
174,FOOTHILLS,FHI,Sobeys - Riverbend,4b6b1c84f964a52089f32be3,50.97836991414743,-114.0139283806908,"[{'icon': {'prefix': 'https://ss3.4sqi.net/img/categories_v2/shops/food_grocery_', 'suffix': '.png'}, 'primary': True, 'pluralName': 'Grocery Stores', 'name': 'Grocery Store', 'id': '4bf58dd8d48988d118951735', 'shortName': 'Grocery Store'}]"
177,FOOTHILLS,FHI,Ogden Pizza,4bd0f18777b29c7498e38b82,50.986794167810444,-113.99907480737315,"[{'icon': {'prefix': 'https://ss3.4sqi.net/img/categories_v2/food/pizza_', 'suffix': '.png'}, 'primary': True, 'pluralName': 'Pizza Places', 'name': 'Pizza Place', 'id': '4bf58dd8d48988d1ca941735', 'shortName': 'Pizza'}]"
179,FOOTHILLS,FHI,Wonton King,514ca2c8e4b0130bca77ed1c,50.99021588045752,-113.95778354598737,"[{'icon': {'prefix': 'https://ss3.4sqi.net/img/categories_v2/food/asian_', 'suffix': '.png'}, 'primary': True, 'pluralName': 'Chinese Restaurants', 'name': 'Chinese Restaurant', 'id': '4bf58dd8d48988d145941735', 'shortName': 'Chinese'}]"
180,FOOTHILLS,FHI,Tandoori Palace,4c4f731b1d76c9288bd0d591,50.980792286401204,-113.99703201221627,"[{'icon': {'prefix': 'https://ss3.4sqi.net/img/categories_v2/food/indian_', 'suffix': '.png'}, 'primary': True, 'pluralName': 'Indian Restaurants', 'name': 'Indian Restaurant', 'id': '4bf58dd8d48988d10f941735', 'shortName': 'Indian'}]"
181,FOOTHILLS,FHI,Garden Court Buffet,4e48058962845e1d3ca6a73b,50.98016073098527,-113.99759764366131,"[{'icon': {'prefix': 'https://ss3.4sqi.net/img/categories_v2/food/default_', 'suffix': '.png'}, 'primary': True, 'pluralName': 'Restaurants', 'name': 'Restaurant', 'id': '4bf58dd8d48988d1c4941735', 'shortName': 'Restaurant'}]"
184,FOOTHILLS,FHI,Drifters,4eb61745775b544c279a84c8,51.008080363386604,-114.00058108427352,"[{'icon': {'prefix': 'https://ss3.4sqi.net/img/categories_v2/food/diner_', 'suffix': '.png'}, 'primary': True, 'pluralName': 'Diners', 'name': 'Diner', 'id': '4bf58dd8d48988d147941735', 'shortName': 'Diner'}]"
186,FOOTHILLS,FHI,J's Wok N Grill,4ede6a58e5fa78b172d9b877,51.010599281956935,-114.00377931145339,"[{'icon': {'prefix': 'https://ss3.4sqi.net/img/categories_v2/food/asian_', 'suffix': '.png'}, 'primary': True, 'pluralName': 'Asian Restaurants', 'name': 'Asian Restaurant', 'id': '4bf58dd8d48988d142941735', 'shortName': 'Asian'}]"
187,SHEPARD INDUSTRIAL,SHI,Karma Indian Cuisine,4bd09ccb9854d13ab712f84d,50.93291659912218,-113.96994909068307,"[{'icon': {'prefix': 'https://ss3.4sqi.net/img/categories_v2/food/indian_', 'suffix': '.png'}, 'primary': True, 'pluralName': 'Indian Restaurants', 'name': 'Indian Restaurant', 'id': '4bf58dd8d48988d10f941735', 'shortName': 'Indian'}]"
190,SHEPARD INDUSTRIAL,SHI,Cornerstone Music Cafe,4e8f9d6977c89cb921680c21,50.93033511699858,-114.02555798853949,"[{'icon': {'prefix': 'https://ss3.4sqi.net/img/categories_v2/arts_entertainment/musicvenue_', 'suffix': '.png'}, 'primary': True, 'pluralName': 'Music Venues', 'name': 'Music Venue', 'id': '4bf58dd8d48988d1e5931735', 'shortName': 'Music Venue'}]"
192,SHEPARD INDUSTRIAL,SHI,Cora's Breakfast & Lunch,4b3ba773f964a520147825e3,50.93292944172112,-113.97045586471388,"[{'icon': {'prefix': 'https://ss3.4sqi.net/img/categories_v2/food/breakfast_', 'suffix': '.png'}, 'primary': True, 'pluralName': 'Breakfast Spots', 'name': 'Breakfast Spot', 'id': '4bf58dd8d48988d143941735', 'shortName': 'Breakfast'}]"
196,SHEPARD INDUSTRIAL,SHI,Famoso Neapolitan Pizzeria,4fc2c1afe4b00baac731734e,50.91624339438785,-113.9604422417089,"[{'icon': {'prefix': 'https://ss3.4sqi.net/img/categories_v2/food/pizza_', 'suffix': '.png'}, 'primary': True, 'pluralName': 'Pizza Places', 'name': 'Pizza Place', 'id': '4bf58dd8d48988d1ca941735', 'shortName': 'Pizza'}]"
199,SHEPARD INDUSTRIAL,SHI,Brewsters McKenzie Towne,4b6244a1f964a5207f3f2ae3,50.91674124059431,-113.96141816311443,"[{'icon': {'prefix': 'https://ss3.4sqi.net/img/categories_v2/food/brewery_', 'suffix': '.png'}, 'primary': True, 'pluralName': 'Breweries', 'name': 'Brewery', 'id': '50327c8591d4c4b30a586d5d', 'shortName': 'Brewery'}]"
202,SHEPARD INDUSTRIAL,SHI,Fratello Analog Cafe,4dbc72d10cb691071ca3d001,50.984817516242686,-114.05143747194398,"[{'icon': {'prefix': 'https://ss3.4sqi.net/img/categories_v2/food/coffeeshop_', 'suffix': '.png'}, 'primary': True, 'pluralName': 'Coffee Shops', 'name': 'Coffee Shop', 'id': '4bf58dd8d48988d1e0931735', 'shortName': 'Coffee Shop'}]"
207,SHEPARD INDUSTRIAL,SHI,White Spot MacLeod Trail,4bd0d7cb41b9ef3b8bf5fae5,50.959873749712564,-114.07081511091606,"[{'icon': {'prefix': 'https://ss3.4sqi.net/img/categories_v2/food/breakfast_', 'suffix': '.png'}, 'primary': True, 'pluralName': 'Breakfast Spots', 'name': 'Breakfast Spot', 'id': '4bf58dd8d48988d143941735', 'shortName': 'Breakfast'}]"
210,SHEPARD INDUSTRIAL,SHI,Safeway starbucks,4f2e001de4b083c427df1765,50.93057928975968,-113.96415132482402,"[{'icon': {'prefix': 'https://ss3.4sqi.net/img/categories_v2/food/coffeeshop_', 'suffix': '.png'}, 'primary': True, 'pluralName': 'Coffee Shops', 'name': 'Coffee Shop', 'id': '4bf58dd8d48988d1e0931735', 'shortName': 'Coffee Shop'}]"
217,SHEPARD INDUSTRIAL,SHI,Edo Japan,4b7c8e39f964a520cc9a2fe3,50.93236467077297,-113.96151865122104,"[{'icon': {'prefix': 'https://ss3.4sqi.net/img/categories_v2/food/japanese_', 'suffix': '.png'}, 'primary': True, 'pluralName': 'Japanese Restaurants', 'name': 'Japanese Restaurant', 'id': '4bf58dd8d48988d111941735', 'shortName': 'Japanese'}]"
219,SHEPARD INDUSTRIAL,SHI,Chili's,4b9730a5f964a520a1fb34e3,50.93139304675528,-113.96880221624447,"[{'icon': {'prefix': 'https://ss3.4sqi.net/img/categories_v2/food/deli_', 'suffix': '.png'}, 'primary': True, 'pluralName': 'Sandwich Places', 'name': 'Sandwich Place', 'id': '4bf58dd8d48988d1c5941735', 'shortName': 'Sandwiches'}]"
223,SHEPARD INDUSTRIAL,SHI,Lighthouse Pub,4bc14fa4b492d13a25fba560,50.92805716925017,-114.0279147330096,"[{'icon': {'prefix': 'https://ss3.4sqi.net/img/categories_v2/nightlife/pub_', 'suffix': '.png'}, 'primary': True, 'pluralName': 'Pubs', 'name': 'Pub', 'id': '4bf58dd8d48988d11b941735', 'shortName': 'Pub'}]"
227,SHEPARD INDUSTRIAL,SHI,Sea,4b6e15e1f964a5205da92ce3,50.91540485373234,-113.96080502352406,"[{'icon': {'prefix': 'https://ss3.4sqi.net/img/categories_v2/food/seafood_', 'suffix': '.png'}, 'primary': True, 'pluralName': 'Seafood Restaurants', 'name': 'Seafood Restaurant', 'id': '4bf58dd8d48988d1ce941735', 'shortName': 'Seafood'}]"
233,SHEPARD INDUSTRIAL,SHI,Pizza Hut,553019af498e4433056a8c57,50.93275490639133,-113.96976322673522,"[{'icon': {'prefix': 'https://ss3.4sqi.net/img/categories_v2/food/pizza_', 'suffix': '.png'}, 'primary': True, 'pluralName': 'Pizza Places', 'name': 'Pizza Place', 'id': '4bf58dd8d48988d1ca941735', 'shortName': 'Pizza'}]"
236,SHEPARD INDUSTRIAL,SHI,Sobeys - McKenzie Towne,4b6f3df8f964a5209ae62ce3,50.916943826033,-113.9598743969682,"[{'icon': {'prefix': 'https://ss3.4sqi.net/img/categories_v2/shops/food_grocery_', 'suffix': '.png'}, 'primary': True, 'pluralName': 'Grocery Stores', 'name': 'Grocery Store', 'id': '4bf58dd8d48988d118951735', 'shortName': 'Grocery Store'}]"
237,FISH CREEK PARK,FPK,Cornerstone Music Cafe,4e8f9d6977c89cb921680c21,50.93033511699858,-114.02555798853949,"[{'icon': {'prefix': 'https://ss3.4sqi.net/img/categories_v2/arts_entertainment/musicvenue_', 'suffix': '.png'}, 'primary': True, 'pluralName': 'Music Venues', 'name': 'Music Venue', 'id': '4bf58dd8d48988d1e5931735', 'shortName': 'Music Venue'}]"
238,FISH CREEK PARK,FPK,Karma Indian Cuisine,4bd09ccb9854d13ab712f84d,50.93291659912218,-113.96994909068307,"[{'icon': {'prefix': 'https://ss3.4sqi.net/img/categories_v2/food/indian_', 'suffix': '.png'}, 'primary': True, 'pluralName': 'Indian Restaurants', 'name': 'Indian Restaurant', 'id': '4bf58dd8d48988d10f941735', 'shortName': 'Indian'}]"
239,FISH CREEK PARK,FPK,East Side Mario's,4b5fa590f964a52046c629e3,50.907708032241246,-114.06506729943517,"[{'icon': {'prefix': 'https://ss3.4sqi.net/img/categories_v2/food/italian_', 'suffix': '.png'}, 'primary': True, 'pluralName': 'Italian Restaurants', 'name': 'Italian Restaurant', 'id': '4bf58dd8d48988d110941735', 'shortName': 'Italian'}]"
241,FISH CREEK PARK,FPK,Good Earth Coffee House,4bc9dfb3cc8cd13aa050bccf,50.87960176501044,-113.97625770183544,"[{'icon': {'prefix': 'https://ss3.4sqi.net/img/categories_v2/food/cafe_', 'suffix': '.png'}, 'primary': True, 'pluralName': 'Cafés', 'name': 'Café', 'id': '4bf58dd8d48988d16d941735', 'shortName': 'Café'}]"
243,FISH CREEK PARK,FPK,Famoso Neapolitan Pizzeria,4fc2c1afe4b00baac731734e,50.91624339438785,-113.9604422417089,"[{'icon': {'prefix': 'https://ss3.4sqi.net/img/categories_v2/food/pizza_', 'suffix': '.png'}, 'primary': True, 'pluralName': 'Pizza Places', 'name': 'Pizza Place', 'id': '4bf58dd8d48988d1ca941735', 'shortName': 'Pizza'}]"
245,FISH CREEK PARK,FPK,Sobeys - Silverado,50678212e4b05eea7005f93a,50.879469762944645,-114.07275968770998,"[{'icon': {'prefix': 'https://ss3.4sqi.net/img/categories_v2/shops/food_grocery_', 'suffix': '.png'}, 'primary': True, 'pluralName': 'Grocery Stores', 'name': 'Grocery Store', 'id': '4bf58dd8d48988d118951735', 'shortName': 'Grocery Store'}]"
246,FISH CREEK PARK,FPK,Brewsters McKenzie Towne,4b6244a1f964a5207f3f2ae3,50.91674124059431,-113.96141816311443,"[{'icon': {'prefix': 'https://ss3.4sqi.net/img/categories_v2/food/brewery_', 'suffix': '.png'}, 'primary': True, 'pluralName': 'Breweries', 'name': 'Brewery', 'id': '50327c8591d4c4b30a586d5d', 'shortName': 'Brewery'}]"
249,FISH CREEK PARK,FPK,Cora's Breakfast & Lunch,4b3ba773f964a520147825e3,50.93292944172112,-113.97045586471388,"[{'icon': {'prefix': 'https://ss3.4sqi.net/img/categories_v2/food/breakfast_', 'suffix': '.png'}, 'primary': True, 'pluralName': 'Breakfast Spots', 'name': 'Breakfast Spot', 'id': '4bf58dd8d48988d143941735', 'shortName': 'Breakfast'}]"
260,FISH CREEK PARK,FPK,Good Earth Cranston,4be72b352468c928682f0243,50.87967295413597,-113.97636066077122,"[{'icon': {'prefix': 'https://ss3.4sqi.net/img/categories_v2/food/cafe_', 'suffix': '.png'}, 'primary': True, 'pluralName': 'Cafés', 'name': 'Café', 'id': '4bf58dd8d48988d16d941735', 'shortName': 'Café'}]"
261,FISH CREEK PARK,FPK,Lighthouse Pub,4bc14fa4b492d13a25fba560,50.92805716925017,-114.0279147330096,"[{'icon': {'prefix': 'https://ss3.4sqi.net/img/categories_v2/nightlife/pub_', 'suffix': '.png'}, 'primary': True, 'pluralName': 'Pubs', 'name': 'Pub', 'id': '4bf58dd8d48988d11b941735', 'shortName': 'Pub'}]"
267,FISH CREEK PARK,FPK,Windsor Rose,4ed3ab64775bbb5f36adc484,50.875968443759476,-114.03749689547215,"[{'icon': {'prefix': 'https://ss3.4sqi.net/img/categories_v2/food/gastropub_', 'suffix': '.png'}, 'primary': True, 'pluralName': 'Gastropubs', 'name': 'Gastropub', 'id': '4bf58dd8d48988d155941735', 'shortName': 'Gastropub'}]"
269,FISH CREEK PARK,FPK,Starbelly,550eed15498e2c34ab307395,50.882019627049004,-113.95791475448951,"[{'icon': {'prefix': 'https://ss3.4sqi.net/img/categories_v2/food/breakfast_', 'suffix': '.png'}, 'primary': True, 'pluralName': 'Breakfast Spots', 'name': 'Breakfast Spot', 'id': '4bf58dd8d48988d143941735', 'shortName': 'Breakfast'}]"
278,FISH CREEK PARK,FPK,Safeway starbucks,4f2e001de4b083c427df1765,50.93057928975968,-113.96415132482402,"[{'icon': {'prefix': 'https://ss3.4sqi.net/img/categories_v2/food/coffeeshop_', 'suffix': '.png'}, 'primary': True, 'pluralName': 'Coffee Shops', 'name': 'Coffee Shop', 'id': '4bf58dd8d48988d1e0931735', 'shortName': 'Coffee Shop'}]"
283,FISH CREEK PARK,FPK,Viet Thai Bistro,4e34a3df62e17d29082bf8f2,50.913305176338454,-113.94995266727472,"[{'icon': {'prefix': 'https://ss3.4sqi.net/img/categories_v2/food/asian_', 'suffix': '.png'}, 'primary': True, 'pluralName': 'Asian Restaurants', 'name': 'Asian Restaurant', 'id': '4bf58dd8d48988d142941735', 'shortName': 'Asian'}]"
284,FISH CREEK PARK,FPK,Sea,4b6e15e1f964a5205da92ce3,50.91540485373234,-113.96080502352406,"[{'icon': {'prefix': 'https://ss3.4sqi.net/img/categories_v2/food/seafood_', 'suffix': '.png'}, 'primary': True, 'pluralName': 'Seafood Restaurants', 'name': 'Seafood Restaurant', 'id': '4bf58dd8d48988d1ce941735', 'shortName': 'Seafood'}]"
286,FISH CREEK PARK,FPK,SUBWAY,52d6e842498ef0028663870d,50.881120258120376,-113.95934497372234,"[{'icon': {'prefix': 'https://ss3.4sqi.net/img/categories_v2/food/deli_', 'suffix': '.png'}, 'primary': True, 'pluralName': 'Sandwich Places', 'name': 'Sandwich Place', 'id': '4bf58dd8d48988d1c5941735', 'shortName': 'Sandwiches'}]"
287,12B,12B,Karma Indian Cuisine,4bd09ccb9854d13ab712f84d,50.93291659912218,-113.96994909068307,"[{'icon': {'prefix': 'https://ss3.4sqi.net/img/categories_v2/food/indian_', 'suffix': '.png'}, 'primary': True, 'pluralName': 'Indian Restaurants', 'name': 'Indian Restaurant', 'id': '4bf58dd8d48988d10f941735', 'shortName': 'Indian'}]"
288,12B,12B,Famoso Neapolitan Pizzeria,4fc2c1afe4b00baac731734e,50.91624339438785,-113.9604422417089,"[{'icon': {'prefix': 'https://ss3.4sqi.net/img/categories_v2/food/pizza_', 'suffix': '.png'}, 'primary': True, 'pluralName': 'Pizza Places', 'name': 'Pizza Place', 'id': '4bf58dd8d48988d1ca941735', 'shortName': 'Pizza'}]"
290,12B,12B,Brewsters McKenzie Towne,4b6244a1f964a5207f3f2ae3,50.91674124059431,-113.96141816311443,"[{'icon': {'prefix': 'https://ss3.4sqi.net/img/categories_v2/food/brewery_', 'suffix': '.png'}, 'primary': True, 'pluralName': 'Breweries', 'name': 'Brewery', 'id': '50327c8591d4c4b30a586d5d', 'shortName': 'Brewery'}]"
292,12B,12B,Cora's Breakfast & Lunch,4b3ba773f964a520147825e3,50.93292944172112,-113.97045586471388,"[{'icon': {'prefix': 'https://ss3.4sqi.net/img/categories_v2/food/breakfast_', 'suffix': '.png'}, 'primary': True, 'pluralName': 'Breakfast Spots', 'name': 'Breakfast Spot', 'id': '4bf58dd8d48988d143941735', 'shortName': 'Breakfast'}]"
295,12B,12B,Good Earth Coffee House,4bc9dfb3cc8cd13aa050bccf,50.87960176501044,-113.97625770183544,"[{'icon': {'prefix': 'https://ss3.4sqi.net/img/categories_v2/food/cafe_', 'suffix': '.png'}, 'primary': True, 'pluralName': 'Cafés', 'name': 'Café', 'id': '4bf58dd8d48988d16d941735', 'shortName': 'Café'}]"
297,12B,12B,Cornerstone Music Cafe,4e8f9d6977c89cb921680c21,50.93033511699858,-114.02555798853949,"[{'icon': {'prefix': 'https://ss3.4sqi.net/img/categories_v2/arts_entertainment/musicvenue_', 'suffix': '.png'}, 'primary': True, 'pluralName': 'Music Venues', 'name': 'Music Venue', 'id': '4bf58dd8d48988d1e5931735', 'shortName': 'Music Venue'}]"
304,12B,12B,Safeway starbucks,4f2e001de4b083c427df1765,50.93057928975968,-113.96415132482402,"[{'icon': {'prefix': 'https://ss3.4sqi.net/img/categories_v2/food/coffeeshop_', 'suffix': '.png'}, 'primary': True, 'pluralName': 'Coffee Shops', 'name': 'Coffee Shop', 'id': '4bf58dd8d48988d1e0931735', 'shortName': 'Coffee Shop'}]"
305,12B,12B,Viet Thai Bistro,4e34a3df62e17d29082bf8f2,50.913305176338454,-113.94995266727472,"[{'icon': {'prefix': 'https://ss3.4sqi.net/img/categories_v2/food/asian_', 'suffix': '.png'}, 'primary': True, 'pluralName': 'Asian Restaurants', 'name': 'Asian Restaurant', 'id': '4bf58dd8d48988d142941735', 'shortName': 'Asian'}]"
306,12B,12B,Starbelly,550eed15498e2c34ab307395,50.882019627049004,-113.95791475448951,"[{'icon': {'prefix': 'https://ss3.4sqi.net/img/categories_v2/food/breakfast_', 'suffix': '.png'}, 'primary': True, 'pluralName': 'Breakfast Spots', 'name': 'Breakfast Spot', 'id': '4bf58dd8d48988d143941735', 'shortName': 'Breakfast'}]"
310,12B,12B,Good Earth Cranston,4be72b352468c928682f0243,50.87967295413597,-113.97636066077122,"[{'icon': {'prefix': 'https://ss3.4sqi.net/img/categories_v2/food/cafe_', 'suffix': '.png'}, 'primary': True, 'pluralName': 'Cafés', 'name': 'Café', 'id': '4bf58dd8d48988d16d941735', 'shortName': 'Café'}]"
312,12B,12B,Sea,4b6e15e1f964a5205da92ce3,50.91540485373234,-113.96080502352406,"[{'icon': {'prefix': 'https://ss3.4sqi.net/img/categories_v2/food/seafood_', 'suffix': '.png'}, 'primary': True, 'pluralName': 'Seafood Restaurants', 'name': 'Seafood Restaurant', 'id': '4bf58dd8d48988d1ce941735', 'shortName': 'Seafood'}]"
314,12B,12B,Edo Japan,4b7c8e39f964a520cc9a2fe3,50.93236467077297,-113.96151865122104,"[{'icon': {'prefix': 'https://ss3.4sqi.net/img/categories_v2/food/japanese_', 'suffix': '.png'}, 'primary': True, 'pluralName': 'Japanese Restaurants', 'name': 'Japanese Restaurant', 'id': '4bf58dd8d48988d111941735', 'shortName': 'Japanese'}]"
318,12B,12B,Sobeys - McKenzie Towne,4b6f3df8f964a5209ae62ce3,50.916943826033,-113.9598743969682,"[{'icon': {'prefix': 'https://ss3.4sqi.net/img/categories_v2/shops/food_grocery_', 'suffix': '.png'}, 'primary': True, 'pluralName': 'Grocery Stores', 'name': 'Grocery Store', 'id': '4bf58dd8d48988d118951735', 'shortName': 'Grocery Store'}]"
320,12B,12B,SUBWAY,52d6e842498ef0028663870d,50.881120258120376,-113.95934497372234,"[{'icon': {'prefix': 'https://ss3.4sqi.net/img/categories_v2/food/deli_', 'suffix': '.png'}, 'primary': True, 'pluralName': 'Sandwich Places', 'name': 'Sandwich Place', 'id': '4bf58dd8d48988d1c5941735', 'shortName': 'Sandwiches'}]"
322,12B,12B,Chili's,4b9730a5f964a520a1fb34e3,50.93139304675528,-113.96880221624447,"[{'icon': {'prefix': 'https://ss3.4sqi.net/img/categories_v2/food/deli_', 'suffix': '.png'}, 'primary': True, 'pluralName': 'Sandwich Places', 'name': 'Sandwich Place', 'id': '4bf58dd8d48988d1c5941735', 'shortName': 'Sandwiches'}]"
329,12B,12B,Lighthouse Pub,4bc14fa4b492d13a25fba560,50.92805716925017,-114.0279147330096,"[{'icon': {'prefix': 'https://ss3.4sqi.net/img/categories_v2/nightlife/pub_', 'suffix': '.png'}, 'primary': True, 'pluralName': 'Pubs', 'name': 'Pub', 'id': '4bf58dd8d48988d11b941735', 'shortName': 'Pub'}]"
335,12B,12B,Good Earth Seton Mall,53c074c4498e7a78c3130293,50.88013071406731,-113.95687161681747,"[{'icon': {'prefix': 'https://ss3.4sqi.net/img/categories_v2/food/cafe_', 'suffix': '.png'}, 'primary': True, 'pluralName': 'Cafés', 'name': 'Café', 'id': '4bf58dd8d48988d16d941735', 'shortName': 'Café'}]"
338,STONEY 4,ST4,Fionn MacCool's Cross Iron,50c9439be4b0cb3d3a93ecad,51.20259980904615,-113.99181265380864,"[{'icon': {'prefix': 'https://ss3.4sqi.net/img/categories_v2/food/breakfast_', 'suffix': '.png'}, 'primary': True, 'pluralName': 'Breakfast Spots', 'name': 'Breakfast Spot', 'id': '4bf58dd8d48988d143941735', 'shortName': 'Breakfast'}]"
340,STONEY 4,ST4,Pacini,4c043c83f423a5930a5dd116,51.150375,-114.000692,"[{'icon': {'prefix': 'https://ss3.4sqi.net/img/categories_v2/food/default_', 'suffix': '.png'}, 'primary': True, 'pluralName': 'American Restaurants', 'name': 'American Restaurant', 'id': '4bf58dd8d48988d14e941735', 'shortName': 'American'}]"
349,STONEY 4,ST4,Good Earth Cafes,4b81986cf964a5207cb130e3,51.16033113053689,-114.12247770794986,"[{'icon': {'prefix': 'https://ss3.4sqi.net/img/categories_v2/food/coffeeshop_', 'suffix': '.png'}, 'primary': True, 'pluralName': 'Coffee Shops', 'name': 'Coffee Shop', 'id': '4bf58dd8d48988d1e0931735', 'shortName': 'Coffee Shop'}]"
356,STONEY 4,ST4,Wok Box,4b69c270f964a5207cb22be3,51.16349587634544,-114.12716719170582,"[{'icon': {'prefix': 'https://ss3.4sqi.net/img/categories_v2/food/asian_', 'suffix': '.png'}, 'primary': True, 'pluralName': 'Asian Restaurants', 'name': 'Asian Restaurant', 'id': '4bf58dd8d48988d142941735', 'shortName': 'Asian'}]"
361,STONEY 4,ST4,Chili's Grill & Bar,4ca12aa42fb1a143a0c80241,51.13285279064184,-114.01366155992756,"[{'icon': {'prefix': 'https://ss3.4sqi.net/img/categories_v2/food/default_', 'suffix': '.png'}, 'primary': True, 'pluralName': 'American Restaurants', 'name': 'American Restaurant', 'id': '4bf58dd8d48988d14e941735', 'shortName': 'American'}]"
362,STONEY 4,ST4,Montana's,4b3d54c8f964a5208d9225e3,51.13041653347308,-114.00981248558884,"[{'icon': {'prefix': 'https://ss3.4sqi.net/img/categories_v2/food/default_', 'suffix': '.png'}, 'primary': True, 'pluralName': 'American Restaurants', 'name': 'American Restaurant', 'id': '4bf58dd8d48988d14e941735', 'shortName': 'American'}]"
367,STONEY 4,ST4,Belgian Beer Café,58233d4a8392da72b92b871c,51.12978785549761,-114.00355740403691,"[{'icon': {'prefix': 'https://ss3.4sqi.net/img/categories_v2/food/default_', 'suffix': '.png'}, 'primary': True, 'pluralName': 'Belgian Restaurants', 'name': 'Belgian Restaurant', 'id': '52e81612bcbc57f1066b7a02', 'shortName': 'Belgian'}]"
371,STONEY 4,ST4,Kelseys,4b64b772f964a520adca2ae3,51.131950843112065,-114.01138582564342,"[{'icon': {'prefix': 'https://ss3.4sqi.net/img/categories_v2/food/default_', 'suffix': '.png'}, 'primary': True, 'pluralName': 'American Restaurants', 'name': 'American Restaurant', 'id': '4bf58dd8d48988d14e941735', 'shortName': 'American'}]"
383,STONEY 4,ST4,La Prep,4ddac76d63653908de757ec8,51.13251227083903,-114.0125878140247,"[{'icon': {'prefix': 'https://ss3.4sqi.net/img/categories_v2/food/default_', 'suffix': '.png'}, 'primary': True, 'pluralName': 'Restaurants', 'name': 'Restaurant', 'id': '4bf58dd8d48988d1c4941735', 'shortName': 'Restaurant'}]"
389,STONEY 1,ST1,Scarpone's - The Italian Store,4b5a29b8f964a52048b128e3,51.09872606829529,-114.04084306672135,"[{'icon': {'prefix': 'https://ss3.4sqi.net/img/categories_v2/shops/food_grocery_', 'suffix': '.png'}, 'primary': True, 'pluralName': 'Grocery Stores', 'name': 'Grocery Store', 'id': '4bf58dd8d48988d118951735', 'shortName': 'Grocery Store'}]"
391,STONEY 1,ST1,Pacini,4c043c83f423a5930a5dd116,51.150375,-114.000692,"[{'icon': {'prefix': 'https://ss3.4sqi.net/img/categories_v2/food/default_', 'suffix': '.png'}, 'primary': True, 'pluralName': 'American Restaurants', 'name': 'American Restaurant', 'id': '4bf58dd8d48988d14e941735', 'shortName': 'American'}]"
392,STONEY 1,ST1,Fionn MacCool's Cross Iron,50c9439be4b0cb3d3a93ecad,51.20259980904615,-113.99181265380864,"[{'icon': {'prefix': 'https://ss3.4sqi.net/img/categories_v2/food/breakfast_', 'suffix': '.png'}, 'primary': True, 'pluralName': 'Breakfast Spots', 'name': 'Breakfast Spot', 'id': '4bf58dd8d48988d143941735', 'shortName': 'Breakfast'}]"
405,STONEY 1,ST1,Good Earth Cafes,4b81986cf964a5207cb130e3,51.16033113053689,-114.12247770794986,"[{'icon': {'prefix': 'https://ss3.4sqi.net/img/categories_v2/food/coffeeshop_', 'suffix': '.png'}, 'primary': True, 'pluralName': 'Coffee Shops', 'name': 'Coffee Shop', 'id': '4bf58dd8d48988d1e0931735', 'shortName': 'Coffee Shop'}]"
410,STONEY 1,ST1,Wok Box,4b69c270f964a5207cb22be3,51.16349587634544,-114.12716719170582,"[{'icon': {'prefix': 'https://ss3.4sqi.net/img/categories_v2/food/asian_', 'suffix': '.png'}, 'primary': True, 'pluralName': 'Asian Restaurants', 'name': 'Asian Restaurant', 'id': '4bf58dd8d48988d142941735', 'shortName': 'Asian'}]"
416,STONEY 1,ST1,Chili's Grill & Bar,4ca12aa42fb1a143a0c80241,51.13285279064184,-114.01366155992756,"[{'icon': {'prefix': 'https://ss3.4sqi.net/img/categories_v2/food/default_', 'suffix': '.png'}, 'primary': True, 'pluralName': 'American Restaurants', 'name': 'American Restaurant', 'id': '4bf58dd8d48988d14e941735', 'shortName': 'American'}]"
417,STONEY 1,ST1,Montana's,4b3d54c8f964a5208d9225e3,51.13041653347308,-114.00981248558884,"[{'icon': {'prefix': 'https://ss3.4sqi.net/img/categories_v2/food/default_', 'suffix': '.png'}, 'primary': True, 'pluralName': 'American Restaurants', 'name': 'American Restaurant', 'id': '4bf58dd8d48988d14e941735', 'shortName': 'American'}]"
422,STONEY 1,ST1,Kelseys,4b64b772f964a520adca2ae3,51.131950843112065,-114.01138582564342,"[{'icon': {'prefix': 'https://ss3.4sqi.net/img/categories_v2/food/default_', 'suffix': '.png'}, 'primary': True, 'pluralName': 'American Restaurants', 'name': 'American Restaurant', 'id': '4bf58dd8d48988d14e941735', 'shortName': 'American'}]"
423,STONEY 1,ST1,Belgian Beer Café,58233d4a8392da72b92b871c,51.12978785549761,-114.00355740403691,"[{'icon': {'prefix': 'https://ss3.4sqi.net/img/categories_v2/food/default_', 'suffix': '.png'}, 'primary': True, 'pluralName': 'Belgian Restaurants', 'name': 'Belgian Restaurant', 'id': '52e81612bcbc57f1066b7a02', 'shortName': 'Belgian'}]"
434,STONEY 1,ST1,La Prep,4ddac76d63653908de757ec8,51.13251227083903,-114.0125878140247,"[{'icon': {'prefix': 'https://ss3.4sqi.net/img/categories_v2/food/default_', 'suffix': '.png'}, 'primary': True, 'pluralName': 'Restaurants', 'name': 'Restaurant', 'id': '4bf58dd8d48988d1c4941735', 'shortName': 'Restaurant'}]"
437,NORTH AIRWAYS,NAW,Cactus Club Cafe,4b6b65e1f964a5200e062ce3,51.08952899827636,-114.00086353367584,"[{'icon': {'prefix': 'https://ss3.4sqi.net/img/categories_v2/food/default_', 'suffix': '.png'}, 'primary': True, 'pluralName': 'American Restaurants', 'name': 'American Restaurant', 'id': '4bf58dd8d48988d14e941735', 'shortName': 'American'}]"
440,NORTH AIRWAYS,NAW,Chapters,4b0ea62ff964a5204d5923e3,51.075447026059514,-113.99101998178733,"[{'icon': {'prefix': 'https://ss3.4sqi.net/img/categories_v2/shops/bookstore_', 'suffix': '.png'}, 'primary': True, 'pluralName': 'Bookstores', 'name': 'Bookstore', 'id': '4bf58dd8d48988d114951735', 'shortName': 'Bookstore'}]"
441,NORTH AIRWAYS,NAW,Scarpone's - The Italian Store,4b5a29b8f964a52048b128e3,51.09872606829529,-114.04084306672135,"[{'icon': {'prefix': 'https://ss3.4sqi.net/img/categories_v2/shops/food_grocery_', 'suffix': '.png'}, 'primary': True, 'pluralName': 'Grocery Stores', 'name': 'Grocery Store', 'id': '4bf58dd8d48988d118951735', 'shortName': 'Grocery Store'}]"
442,NORTH AIRWAYS,NAW,Moxie's Classic Grill,4b0586ebf964a5206f7522e3,51.094962248253026,-114.00067302826717,"[{'icon': {'prefix': 'https://ss3.4sqi.net/img/categories_v2/food/default_', 'suffix': '.png'}, 'primary': True, 'pluralName': 'American Restaurants', 'name': 'American Restaurant', 'id': '4bf58dd8d48988d14e941735', 'shortName': 'American'}]"
443,NORTH AIRWAYS,NAW,White Spot Barlow Trail,4b0feb20f964a5203f6623e3,51.08215111304877,-114.00426084731332,"[{'icon': {'prefix': 'https://ss3.4sqi.net/img/categories_v2/food/breakfast_', 'suffix': '.png'}, 'primary': True, 'pluralName': 'Breakfast Spots', 'name': 'Breakfast Spot', 'id': '4bf58dd8d48988d143941735', 'shortName': 'Breakfast'}]"
445,NORTH AIRWAYS,NAW,Noodle King,4b97ef01f964a520722035e3,51.079927723178976,-114.005547568727,"[{'icon': {'prefix': 'https://ss3.4sqi.net/img/categories_v2/food/vietnamese_', 'suffix': '.png'}, 'primary': True, 'pluralName': 'Vietnamese Restaurants', 'name': 'Vietnamese Restaurant', 'id': '4bf58dd8d48988d14a941735', 'shortName': 'Vietnamese'}]"
452,NORTH AIRWAYS,NAW,Cora,4e52729dfa7687935fbb3ff8,51.07454642250958,-113.98448727460058,"[{'icon': {'prefix': 'https://ss3.4sqi.net/img/categories_v2/food/breakfast_', 'suffix': '.png'}, 'primary': True, 'pluralName': 'Breakfast Spots', 'name': 'Breakfast Spot', 'id': '4bf58dd8d48988d143941735', 'shortName': 'Breakfast'}]"
454,NORTH AIRWAYS,NAW,Deerhead Cafe,4c12356aa5eb76b066b2bdb7,51.08530874653375,-114.05178735005227,"[{'icon': {'prefix': 'https://ss3.4sqi.net/img/categories_v2/food/breakfast_', 'suffix': '.png'}, 'primary': True, 'pluralName': 'Breakfast Spots', 'name': 'Breakfast Spot', 'id': '4bf58dd8d48988d143941735', 'shortName': 'Breakfast'}]"
458,NORTH AIRWAYS,NAW,Alberta King of Subs,4b0586ecf964a520c47522e3,51.09131252004951,-113.95779283227455,"[{'icon': {'prefix': 'https://ss3.4sqi.net/img/categories_v2/food/diner_', 'suffix': '.png'}, 'primary': True, 'pluralName': 'Diners', 'name': 'Diner', 'id': '4bf58dd8d48988d147941735', 'shortName': 'Diner'}]"
459,NORTH AIRWAYS,NAW,Perkins Family Restaurant,4b5c9711f964a520713829e3,51.080382133376986,-114.00291942007895,"[{'icon': {'prefix': 'https://ss3.4sqi.net/img/categories_v2/food/default_', 'suffix': '.png'}, 'primary': True, 'pluralName': 'American Restaurants', 'name': 'American Restaurant', 'id': '4bf58dd8d48988d14e941735', 'shortName': 'American'}]"
464,NORTH AIRWAYS,NAW,Ric's Lounge & Grill,4c24cc99a852c928caace36c,51.071218730352484,-113.99911574102899,"[{'icon': {'prefix': 'https://ss3.4sqi.net/img/categories_v2/food/default_', 'suffix': '.png'}, 'primary': True, 'pluralName': 'American Restaurants', 'name': 'American Restaurant', 'id': '4bf58dd8d48988d14e941735', 'shortName': 'American'}]"
469,NORTH AIRWAYS,NAW,Shaw Barlow,4b463756f964a520591a26e3,51.083733194811316,-114.00395566530628,"[{'icon': {'prefix': 'https://ss3.4sqi.net/img/categories_v2/building/default_', 'suffix': '.png'}, 'primary': True, 'pluralName': 'Offices', 'name': 'Office', 'id': '4bf58dd8d48988d124941735', 'shortName': 'Office'}]"
472,NORTH AIRWAYS,NAW,Sunridge Mall,4b088f57f964a5206a0e23e3,51.07434679273511,-113.98592669558967,"[{'icon': {'prefix': 'https://ss3.4sqi.net/img/categories_v2/shops/mall_', 'suffix': '.png'}, 'primary': True, 'pluralName': 'Shopping Malls', 'name': 'Shopping Mall', 'id': '4bf58dd8d48988d1fd941735', 'shortName': 'Mall'}]"
473,NORTH AIRWAYS,NAW,Skyharbour Grill,51a8a72a498e93d203dc8e49,51.09142184310137,-114.0124675062664,"[{'icon': {'prefix': 'https://ss3.4sqi.net/img/categories_v2/food/breakfast_', 'suffix': '.png'}, 'primary': True, 'pluralName': 'Breakfast Spots', 'name': 'Breakfast Spot', 'id': '4bf58dd8d48988d143941735', 'shortName': 'Breakfast'}]"
478,NORTH AIRWAYS,NAW,Esso,4b6df314f964a520499e2ce3,51.08545368743343,-113.95775605712575,"[{'icon': {'prefix': 'https://ss3.4sqi.net/img/categories_v2/shops/gas_', 'suffix': '.png'}, 'primary': True, 'pluralName': 'Gas Stations', 'name': 'Gas Station', 'id': '4bf58dd8d48988d113951735', 'shortName': 'Gas Station'}]"
479,NORTH AIRWAYS,NAW,Colors Bistro At Sheraton Cavalier Hotel Calgary,506e3777e4b03004fffd7d22,51.0820875636744,-114.0000526791071,"[{'icon': {'prefix': 'https://ss3.4sqi.net/img/categories_v2/food/default_', 'suffix': '.png'}, 'primary': True, 'pluralName': 'American Restaurants', 'name': 'American Restaurant', 'id': '4bf58dd8d48988d14e941735', 'shortName': 'American'}]"
480,NORTH AIRWAYS,NAW,Husky House Restaurant,4f6fcd12d5fb796773e83a27,51.08098260928504,-114.00056204594856,"[{'icon': {'prefix': 'https://ss3.4sqi.net/img/categories_v2/food/diner_', 'suffix': '.png'}, 'primary': True, 'pluralName': 'Diners', 'name': 'Diner', 'id': '4bf58dd8d48988d147941735', 'shortName': 'Diner'}]"
481,NORTH AIRWAYS,NAW,Austrian Canadian Cultural Centre,4d5435d2bdbea1cd1070e492,51.0795893626842,-114.02981063759445,"[{'icon': {'prefix': 'https://ss3.4sqi.net/img/categories_v2/food/default_', 'suffix': '.png'}, 'primary': True, 'pluralName': 'Restaurants', 'name': 'Restaurant', 'id': '4bf58dd8d48988d1c4941735', 'shortName': 'Restaurant'}]"
485,NORTH AIRWAYS,NAW,Pho 36,52edb0bf498e283ed2a9eadb,51.088024395413534,-113.98118930043461,"[{'icon': {'prefix': 'https://ss3.4sqi.net/img/categories_v2/food/vietnamese_', 'suffix': '.png'}, 'primary': True, 'pluralName': 'Vietnamese Restaurants', 'name': 'Vietnamese Restaurant', 'id': '4bf58dd8d48988d14a941735', 'shortName': 'Vietnamese'}]"
486,NORTH AIRWAYS,NAW,Botanica,4cc332d9bde8f04d2aa1a34b,51.067443,-114.0103545,"[{'icon': {'prefix': 'https://ss3.4sqi.net/img/categories_v2/food/default_', 'suffix': '.png'}, 'primary': True, 'pluralName': 'American Restaurants', 'name': 'American Restaurant', 'id': '4bf58dd8d48988d14e941735', 'shortName': 'American'}]"
488,STONEGATE LANDING,SGL,Fionn MacCool's Cross Iron,50c9439be4b0cb3d3a93ecad,51.20259980904615,-113.99181265380864,"[{'icon': {'prefix': 'https://ss3.4sqi.net/img/categories_v2/food/breakfast_', 'suffix': '.png'}, 'primary': True, 'pluralName': 'Breakfast Spots', 'name': 'Breakfast Spot', 'id': '4bf58dd8d48988d143941735', 'shortName': 'Breakfast'}]"
489,STONEGATE LANDING,SGL,Pacini,4c043c83f423a5930a5dd116,51.150375,-114.000692,"[{'icon': {'prefix': 'https://ss3.4sqi.net/img/categories_v2/food/default_', 'suffix': '.png'}, 'primary': True, 'pluralName': 'American Restaurants', 'name': 'American Restaurant', 'id': '4bf58dd8d48988d14e941735', 'shortName': 'American'}]"
497,STONEGATE LANDING,SGL,Moxie's Classic Grill,4b0586ebf964a5206f7522e3,51.094962248253026,-114.00067302826717,"[{'icon': {'prefix': 'https://ss3.4sqi.net/img/categories_v2/food/default_', 'suffix': '.png'}, 'primary': True, 'pluralName': 'American Restaurants', 'name': 'American Restaurant', 'id': '4bf58dd8d48988d14e941735', 'shortName': 'American'}]"
524,STONEGATE LANDING,SGL,Ricky's All Day Grill,4c41e9593735be9af92019a4,51.155297408565,-114.05481144240855,"[{'icon': {'prefix': 'https://ss3.4sqi.net/img/categories_v2/food/default_', 'suffix': '.png'}, 'primary': True, 'pluralName': 'American Restaurants', 'name': 'American Restaurant', 'id': '4bf58dd8d48988d14e941735', 'shortName': 'American'}]"
525,STONEGATE LANDING,SGL,Mary Brown's Famous Chicken And Taters,4c76fe60947ca1cd18214637,51.16120023080304,-114.06356296501342,"[{'icon': {'prefix': 'https://ss3.4sqi.net/img/categories_v2/food/friedchicken_', 'suffix': '.png'}, 'primary': True, 'pluralName': 'Fried Chicken Joints', 'name': 'Fried Chicken Joint', 'id': '4d4ae6fc7a7b7dea34424761', 'shortName': 'Fried Chicken'}]"
526,STONEGATE LANDING,SGL,Extreme Pita,4bddeafee75c0f477121c603,51.161162,-114.064829,"[{'icon': {'prefix': 'https://ss3.4sqi.net/img/categories_v2/food/fastfood_', 'suffix': '.png'}, 'primary': True, 'pluralName': 'Fast Food Restaurants', 'name': 'Fast Food Restaurant', 'id': '4bf58dd8d48988d16e941735', 'shortName': 'Fast Food'}]"
527,STONEGATE LANDING,SGL,Pizza 73,4d96bc3fc19fb60cccd28565,51.161201658422144,-114.06496098394028,"[{'icon': {'prefix': 'https://ss3.4sqi.net/img/categories_v2/food/pizza_', 'suffix': '.png'}, 'primary': True, 'pluralName': 'Pizza Places', 'name': 'Pizza Place', 'id': '4bf58dd8d48988d1ca941735', 'shortName': 'Pizza'}]"
529,STONEGATE LANDING,SGL,Jugo Juice - Cardel Place,4c338a3f7cc0c9b6f2f8f19a,51.159393787288934,-114.06664903654146,"[{'icon': {'prefix': 'https://ss3.4sqi.net/img/categories_v2/food/juicebar_', 'suffix': '.png'}, 'primary': True, 'pluralName': 'Juice Bars', 'name': 'Juice Bar', 'id': '4bf58dd8d48988d112941735', 'shortName': 'Juice Bar'}]"
530,STONEGATE LANDING,SGL,Mac's,4b6ed29bf964a52011cc2ce3,51.10144749348943,-113.94953805843072,"[{'icon': {'prefix': 'https://ss3.4sqi.net/img/categories_v2/food/fastfood_', 'suffix': '.png'}, 'primary': True, 'pluralName': 'Fast Food Restaurants', 'name': 'Fast Food Restaurant', 'id': '4bf58dd8d48988d16e941735', 'shortName': 'Fast Food'}]"
531,STONEGATE LANDING,SGL,Eggs & More,4b719061f964a520c54d2de3,51.09745114579045,-113.95739550492337,"[{'icon': {'prefix': 'https://ss3.4sqi.net/img/categories_v2/food/breakfast_', 'suffix': '.png'}, 'primary': True, 'pluralName': 'Breakfast Spots', 'name': 'Breakfast Spot', 'id': '4bf58dd8d48988d143941735', 'shortName': 'Breakfast'}]"
534,STONEY 2,ST2,Scarpone's - The Italian Store,4b5a29b8f964a52048b128e3,51.09872606829529,-114.04084306672135,"[{'icon': {'prefix': 'https://ss3.4sqi.net/img/categories_v2/shops/food_grocery_', 'suffix': '.png'}, 'primary': True, 'pluralName': 'Grocery Stores', 'name': 'Grocery Store', 'id': '4bf58dd8d48988d118951735', 'shortName': 'Grocery Store'}]"
535,STONEY 2,ST2,Cactus Club Cafe,4b6b65e1f964a5200e062ce3,51.08952899827636,-114.00086353367584,"[{'icon': {'prefix': 'https://ss3.4sqi.net/img/categories_v2/food/default_', 'suffix': '.png'}, 'primary': True, 'pluralName': 'American Restaurants', 'name': 'American Restaurant', 'id': '4bf58dd8d48988d14e941735', 'shortName': 'American'}]"
538,STONEY 2,ST2,Pacini,4c043c83f423a5930a5dd116,51.150375,-114.000692,"[{'icon': {'prefix': 'https://ss3.4sqi.net/img/categories_v2/food/default_', 'suffix': '.png'}, 'primary': True, 'pluralName': 'American Restaurants', 'name': 'American Restaurant', 'id': '4bf58dd8d48988d14e941735', 'shortName': 'American'}]"
548,STONEY 2,ST2,Moxie's Classic Grill,4b0586ebf964a5206f7522e3,51.094962248253026,-114.00067302826717,"[{'icon': {'prefix': 'https://ss3.4sqi.net/img/categories_v2/food/default_', 'suffix': '.png'}, 'primary': True, 'pluralName': 'American Restaurants', 'name': 'American Restaurant', 'id': '4bf58dd8d48988d14e941735', 'shortName': 'American'}]"
553,STONEY 2,ST2,Chili's Grill & Bar,4ca12aa42fb1a143a0c80241,51.13285279064184,-114.01366155992756,"[{'icon': {'prefix': 'https://ss3.4sqi.net/img/categories_v2/food/default_', 'suffix': '.png'}, 'primary': True, 'pluralName': 'American Restaurants', 'name': 'American Restaurant', 'id': '4bf58dd8d48988d14e941735', 'shortName': 'American'}]"
554,STONEY 2,ST2,Montana's,4b3d54c8f964a5208d9225e3,51.13041653347308,-114.00981248558884,"[{'icon': {'prefix': 'https://ss3.4sqi.net/img/categories_v2/food/default_', 'suffix': '.png'}, 'primary': True, 'pluralName': 'American Restaurants', 'name': 'American Restaurant', 'id': '4bf58dd8d48988d14e941735', 'shortName': 'American'}]"
560,STONEY 2,ST2,Kelseys,4b64b772f964a520adca2ae3,51.131950843112065,-114.01138582564342,"[{'icon': {'prefix': 'https://ss3.4sqi.net/img/categories_v2/food/default_', 'suffix': '.png'}, 'primary': True, 'pluralName': 'American Restaurants', 'name': 'American Restaurant', 'id': '4bf58dd8d48988d14e941735', 'shortName': 'American'}]"
561,STONEY 2,ST2,Belgian Beer Café,58233d4a8392da72b92b871c,51.12978785549761,-114.00355740403691,"[{'icon': {'prefix': 'https://ss3.4sqi.net/img/categories_v2/food/default_', 'suffix': '.png'}, 'primary': True, 'pluralName': 'Belgian Restaurants', 'name': 'Belgian Restaurant', 'id': '52e81612bcbc57f1066b7a02', 'shortName': 'Belgian'}]"
568,STONEY 2,ST2,La Prep,4ddac76d63653908de757ec8,51.13251227083903,-114.0125878140247,"[{'icon': {'prefix': 'https://ss3.4sqi.net/img/categories_v2/food/default_', 'suffix': '.png'}, 'primary': True, 'pluralName': 'Restaurants', 'name': 'Restaurant', 'id': '4bf58dd8d48988d1c4941735', 'shortName': 'Restaurant'}]"
584,STARFIELD,STD,Shawarma Palace,4bf0b12e21072d7fc449208b,51.037969176718356,-113.97908643380909,"[{'icon': {'prefix': 'https://ss3.4sqi.net/img/categories_v2/food/falafel_', 'suffix': '.png'}, 'primary': True, 'pluralName': 'Falafel Restaurants', 'name': 'Falafel Restaurant', 'id': '4bf58dd8d48988d10b941735', 'shortName': 'Falafel'}]"
585,STARFIELD,STD,Pacific Hut Restaurant,4b0586ecf964a520c07522e3,51.03692238262008,-113.98876716446624,"[{'icon': {'prefix': 'https://ss3.4sqi.net/img/categories_v2/food/asian_', 'suffix': '.png'}, 'primary': True, 'pluralName': 'Asian Restaurants', 'name': 'Asian Restaurant', 'id': '4bf58dd8d48988d142941735', 'shortName': 'Asian'}]"
586,STARFIELD,STD,Blackfoot Diner,4b51e6ddf964a5206b5a27e3,51.03646549861947,-114.02038675227006,"[{'icon': {'prefix': 'https://ss3.4sqi.net/img/categories_v2/food/diner_', 'suffix': '.png'}, 'primary': True, 'pluralName': 'Diners', 'name': 'Diner', 'id': '4bf58dd8d48988d147941735', 'shortName': 'Diner'}]"
594,STARFIELD,STD,Kings Restaurant,4b7aeeeaf964a52004472fe3,51.052640536529026,-114.00086003335883,"[{'icon': {'prefix': 'https://ss3.4sqi.net/img/categories_v2/food/asian_', 'suffix': '.png'}, 'primary': True, 'pluralName': 'Chinese Restaurants', 'name': 'Chinese Restaurant', 'id': '4bf58dd8d48988d145941735', 'shortName': 'Chinese'}]"
610,STARFIELD,STD,Road King Truck Stop,4bbff94f74a9a5938185cff6,51.010588836292335,-114.00377343261962,"[{'icon': {'prefix': 'https://ss3.4sqi.net/img/categories_v2/food/diner_', 'suffix': '.png'}, 'primary': True, 'pluralName': 'Diners', 'name': 'Diner', 'id': '4bf58dd8d48988d147941735', 'shortName': 'Diner'}]"
616,STARFIELD,STD,Sobeys - Forest Lawn,4b22d945f964a520b24e24e3,51.03729313030451,-113.96035285238291,"[{'icon': {'prefix': 'https://ss3.4sqi.net/img/categories_v2/shops/food_grocery_', 'suffix': '.png'}, 'primary': True, 'pluralName': 'Grocery Stores', 'name': 'Grocery Store', 'id': '4bf58dd8d48988d118951735', 'shortName': 'Grocery Store'}]"
618,STARFIELD,STD,Sobeys - Riverbend,4b6b1c84f964a52089f32be3,50.97836991414743,-114.0139283806908,"[{'icon': {'prefix': 'https://ss3.4sqi.net/img/categories_v2/shops/food_grocery_', 'suffix': '.png'}, 'primary': True, 'pluralName': 'Grocery Stores', 'name': 'Grocery Store', 'id': '4bf58dd8d48988d118951735', 'shortName': 'Grocery Store'}]"
620,STARFIELD,STD,Tandoori Palace,4c4f731b1d76c9288bd0d591,50.980792286401204,-113.99703201221627,"[{'icon': {'prefix': 'https://ss3.4sqi.net/img/categories_v2/food/indian_', 'suffix': '.png'}, 'primary': True, 'pluralName': 'Indian Restaurants', 'name': 'Indian Restaurant', 'id': '4bf58dd8d48988d10f941735', 'shortName': 'Indian'}]"
621,STARFIELD,STD,Garden Court Buffet,4e48058962845e1d3ca6a73b,50.98016073098527,-113.99759764366131,"[{'icon': {'prefix': 'https://ss3.4sqi.net/img/categories_v2/food/default_', 'suffix': '.png'}, 'primary': True, 'pluralName': 'Restaurants', 'name': 'Restaurant', 'id': '4bf58dd8d48988d1c4941735', 'shortName': 'Restaurant'}]"
625,STARFIELD,STD,Mohave Grill,4babb2e9f964a52099c13ae3,50.949013828559835,-113.98272472839406,"[{'icon': {'prefix': 'https://ss3.4sqi.net/img/categories_v2/food/bbqalt_', 'suffix': '.png'}, 'primary': True, 'pluralName': 'BBQ Joints', 'name': 'BBQ Joint', 'id': '4bf58dd8d48988d1df931735', 'shortName': 'BBQ'}]"
626,STARFIELD,STD,Calgary Inter-Faith Food Bank,4b2fa3c7f964a5204fed24e3,51.00994645133776,-114.03595822230533,"[{'icon': {'prefix': 'https://ss3.4sqi.net/img/categories_v2/building/default_', 'suffix': '.png'}, 'primary': True, 'pluralName': 'Buildings', 'name': 'Building', 'id': '4bf58dd8d48988d130941735', 'shortName': 'Building'}]"
627,STARFIELD,STD,Olive Grove,4d7ec3a93e50b1f71954d1d3,50.9511283,-114.001618,"[{'icon': {'prefix': 'https://ss3.4sqi.net/img/categories_v2/food/pizza_', 'suffix': '.png'}, 'primary': True, 'pluralName': 'Pizza Places', 'name': 'Pizza Place', 'id': '4bf58dd8d48988d1ca941735', 'shortName': 'Pizza'}]"
628,GREENVIEW INDUSTRIAL PARK,GRI,Scarpone's - The Italian Store,4b5a29b8f964a52048b128e3,51.09872606829529,-114.04084306672135,"[{'icon': {'prefix': 'https://ss3.4sqi.net/img/categories_v2/shops/food_grocery_', 'suffix': '.png'}, 'primary': True, 'pluralName': 'Grocery Stores', 'name': 'Grocery Store', 'id': '4bf58dd8d48988d118951735', 'shortName': 'Grocery Store'}]"
630,GREENVIEW INDUSTRIAL PARK,GRI,Lina's Italian Market & Cappucino Bar,4b0586eef964a520577622e3,51.07202505284402,-114.06234667360617,"[{'icon': {'prefix': 'https://ss3.4sqi.net/img/categories_v2/food/italian_', 'suffix': '.png'}, 'primary': True, 'pluralName': 'Italian Restaurants', 'name': 'Italian Restaurant', 'id': '4bf58dd8d48988d110941735', 'shortName': 'Italian'}]"
631,GREENVIEW INDUSTRIAL PARK,GRI,Cactus Club Cafe,4b6b65e1f964a5200e062ce3,51.08952899827636,-114.00086353367584,"[{'icon': {'prefix': 'https://ss3.4sqi.net/img/categories_v2/food/default_', 'suffix': '.png'}, 'primary': True, 'pluralName': 'American Restaurants', 'name': 'American Restaurant', 'id': '4bf58dd8d48988d14e941735', 'shortName': 'American'}]"
632,GREENVIEW INDUSTRIAL PARK,GRI,Diner Deluxe,4b117d6ef964a520ac7d23e3,51.05857001803054,-114.05412091856454,"[{'icon': {'prefix': 'https://ss3.4sqi.net/img/categories_v2/food/diner_', 'suffix': '.png'}, 'primary': True, 'pluralName': 'Diners', 'name': 'Diner', 'id': '4bf58dd8d48988d147941735', 'shortName': 'Diner'}]"
633,GREENVIEW INDUSTRIAL PARK,GRI,Deerhead Cafe,4c12356aa5eb76b066b2bdb7,51.08530874653375,-114.05178735005227,"[{'icon': {'prefix': 'https://ss3.4sqi.net/img/categories_v2/food/breakfast_', 'suffix': '.png'}, 'primary': True, 'pluralName': 'Breakfast Spots', 'name': 'Breakfast Spot', 'id': '4bf58dd8d48988d143941735', 'shortName': 'Breakfast'}]"
634,GREENVIEW INDUSTRIAL PARK,GRI,Jerusalem Shawarma,55e53ba0498e4344c5c79c69,51.06681340799469,-114.0675959957433,"[{'icon': {'prefix': 'https://ss3.4sqi.net/img/categories_v2/food/middleeastern_', 'suffix': '.png'}, 'primary': True, 'pluralName': 'Middle Eastern Restaurants', 'name': 'Middle Eastern Restaurant', 'id': '4bf58dd8d48988d115941735', 'shortName': 'Middle Eastern'}]"
635,GREENVIEW INDUSTRIAL PARK,GRI,Over Easy Breakfast,4b379da0f964a520134325e3,51.05317318370574,-114.04412627220154,"[{'icon': {'prefix': 'https://ss3.4sqi.net/img/categories_v2/food/breakfast_', 'suffix': '.png'}, 'primary': True, 'pluralName': 'Breakfast Spots', 'name': 'Breakfast Spot', 'id': '4bf58dd8d48988d143941735', 'shortName': 'Breakfast'}]"
636,GREENVIEW INDUSTRIAL PARK,GRI,Blue Star Diner,4e4a98cb62847afcaf180933,51.05323399650723,-114.04491803735235,"[{'icon': {'prefix': 'https://ss3.4sqi.net/img/categories_v2/food/diner_', 'suffix': '.png'}, 'primary': True, 'pluralName': 'Diners', 'name': 'Diner', 'id': '4bf58dd8d48988d147941735', 'shortName': 'Diner'}]"
638,GREENVIEW INDUSTRIAL PARK,GRI,Éclair de Lune,4c9e64ae46978cfa9955a17f,51.08861691900118,-114.0853139069467,"[{'icon': {'prefix': 'https://ss3.4sqi.net/img/categories_v2/food/bakery_', 'suffix': '.png'}, 'primary': True, 'pluralName': 'Bakeries', 'name': 'Bakery', 'id': '4bf58dd8d48988d16a941735', 'shortName': 'Bakery'}]"
645,GREENVIEW INDUSTRIAL PARK,GRI,Moxie's Classic Grill,4b0586ebf964a5206f7522e3,51.094962248253026,-114.00067302826717,"[{'icon': {'prefix': 'https://ss3.4sqi.net/img/categories_v2/food/default_', 'suffix': '.png'}, 'primary': True, 'pluralName': 'American Restaurants', 'name': 'American Restaurant', 'id': '4bf58dd8d48988d14e941735', 'shortName': 'American'}]"
647,GREENVIEW INDUSTRIAL PARK,GRI,White Spot Barlow Trail,4b0feb20f964a5203f6623e3,51.08215111304877,-114.00426084731332,"[{'icon': {'prefix': 'https://ss3.4sqi.net/img/categories_v2/food/breakfast_', 'suffix': '.png'}, 'primary': True, 'pluralName': 'Breakfast Spots', 'name': 'Breakfast Spot', 'id': '4bf58dd8d48988d143941735', 'shortName': 'Breakfast'}]"
651,GREENVIEW INDUSTRIAL PARK,GRI,Noodle King,4b97ef01f964a520722035e3,51.079927723178976,-114.005547568727,"[{'icon': {'prefix': 'https://ss3.4sqi.net/img/categories_v2/food/vietnamese_', 'suffix': '.png'}, 'primary': True, 'pluralName': 'Vietnamese Restaurants', 'name': 'Vietnamese Restaurant', 'id': '4bf58dd8d48988d14a941735', 'shortName': 'Vietnamese'}]"
652,GREENVIEW INDUSTRIAL PARK,GRI,The Main Dish,4b083712f964a520770623e3,51.052985214997534,-114.04145628980447,"[{'icon': {'prefix': 'https://ss3.4sqi.net/img/categories_v2/food/deli_', 'suffix': '.png'}, 'primary': True, 'pluralName': 'Sandwich Places', 'name': 'Sandwich Place', 'id': '4bf58dd8d48988d1c5941735', 'shortName': 'Sandwiches'}]"
668,GREENVIEW INDUSTRIAL PARK,GRI,Humpty's,4b79dc79f964a520b1162fe3,51.111236321263796,-114.05628333158079,"[{'icon': {'prefix': 'https://ss3.4sqi.net/img/categories_v2/food/breakfast_', 'suffix': '.png'}, 'primary': True, 'pluralName': 'Breakfast Spots', 'name': 'Breakfast Spot', 'id': '4bf58dd8d48988d143941735', 'shortName': 'Breakfast'}]"
670,GREENVIEW INDUSTRIAL PARK,GRI,Safeway,4bd64740cfa7b713737027da,51.06832553557947,-114.06146832457391,"[{'icon': {'prefix': 'https://ss3.4sqi.net/img/categories_v2/shops/food_grocery_', 'suffix': '.png'}, 'primary': True, 'pluralName': 'Grocery Stores', 'name': 'Grocery Store', 'id': '4bf58dd8d48988d118951735', 'shortName': 'Grocery Store'}]"
671,GREENVIEW INDUSTRIAL PARK,GRI,Black Bull Pub,4b42cf59f964a52016da25e3,51.11138582455971,-114.05315914607581,"[{'icon': {'prefix': 'https://ss3.4sqi.net/img/categories_v2/nightlife/pub_', 'suffix': '.png'}, 'primary': True, 'pluralName': 'Pubs', 'name': 'Pub', 'id': '4bf58dd8d48988d11b941735', 'shortName': 'Pub'}]"
673,GREENVIEW INDUSTRIAL PARK,GRI,Perkins Family Restaurant,4b5c9711f964a520713829e3,51.080382133376986,-114.00291942007895,"[{'icon': {'prefix': 'https://ss3.4sqi.net/img/categories_v2/food/default_', 'suffix': '.png'}, 'primary': True, 'pluralName': 'American Restaurants', 'name': 'American Restaurant', 'id': '4bf58dd8d48988d14e941735', 'shortName': 'American'}]"
674,GREENVIEW INDUSTRIAL PARK,GRI,Humpty's,4ca781d314c337048c61ca3b,51.095761,-114.05282,"[{'icon': {'prefix': 'https://ss3.4sqi.net/img/categories_v2/food/breakfast_', 'suffix': '.png'}, 'primary': True, 'pluralName': 'Breakfast Spots', 'name': 'Breakfast Spot', 'id': '4bf58dd8d48988d143941735', 'shortName': 'Breakfast'}]"
678,GLENMORE PARK,GPK,Pfanntastic Pannenkoek Haus,4b40c2f2f964a520d2ba25e3,51.004184867353956,-114.11747632655957,"[{'icon': {'prefix': 'https://ss3.4sqi.net/img/categories_v2/food/breakfast_', 'suffix': '.png'}, 'primary': True, 'pluralName': 'Breakfast Spots', 'name': 'Breakfast Spot', 'id': '4bf58dd8d48988d143941735', 'shortName': 'Breakfast'}]"
679,GLENMORE PARK,GPK,Monogram Coffee,5502fb8c498e95778d8e7fd5,51.010967065214984,-114.10005439602287,"[{'icon': {'prefix': 'https://ss3.4sqi.net/img/categories_v2/food/coffeeshop_', 'suffix': '.png'}, 'primary': True, 'pluralName': 'Coffee Shops', 'name': 'Coffee Shop', 'id': '4bf58dd8d48988d1e0931735', 'shortName': 'Coffee Shop'}]"
680,GLENMORE PARK,GPK,Glamorgan Bakery Ltd,4b64c1a0f964a5209fcd2ae3,51.021592,-114.143528,"[{'icon': {'prefix': 'https://ss3.4sqi.net/img/categories_v2/food/bakery_', 'suffix': '.png'}, 'primary': True, 'pluralName': 'Bakeries', 'name': 'Bakery', 'id': '4bf58dd8d48988d16a941735', 'shortName': 'Bakery'}]"
681,GLENMORE PARK,GPK,Phil & Sebastian Coffee Roaster,4ca4d97f7f84224b96e5d058,51.00042560750507,-114.0732895713657,"[{'icon': {'prefix': 'https://ss3.4sqi.net/img/categories_v2/food/cafe_', 'suffix': '.png'}, 'primary': True, 'pluralName': 'Cafés', 'name': 'Café', 'id': '4bf58dd8d48988d16d941735', 'shortName': 'Café'}]"
683,GLENMORE PARK,GPK,The Keg Steakhouse + Bar,4b0586e7f964a520e07322e3,50.99054230954866,-114.07095336900285,"[{'icon': {'prefix': 'https://ss3.4sqi.net/img/categories_v2/food/steakhouse_', 'suffix': '.png'}, 'primary': True, 'pluralName': 'Steakhouses', 'name': 'Steakhouse', 'id': '4bf58dd8d48988d1cc941735', 'shortName': 'Steakhouse'}]"
684,GLENMORE PARK,GPK,Bolero,4bd7626935aad13a8fc58ef3,50.992366574675366,-114.07089722628092,"[{'icon': {'prefix': 'https://ss3.4sqi.net/img/categories_v2/food/argentinian_', 'suffix': '.png'}, 'primary': True, 'pluralName': 'Brazilian Restaurants', 'name': 'Brazilian Restaurant', 'id': '4bf58dd8d48988d16b941735', 'shortName': 'Brazilian'}]"
685,GLENMORE PARK,GPK,Smuggler's Inn,4b0586e7f964a5202f7422e3,50.99202861339054,-114.07074226894635,"[{'icon': {'prefix': 'https://ss3.4sqi.net/img/categories_v2/food/steakhouse_', 'suffix': '.png'}, 'primary': True, 'pluralName': 'Steakhouses', 'name': 'Steakhouse', 'id': '4bf58dd8d48988d1cc941735', 'shortName': 'Steakhouse'}]"
691,GLENMORE PARK,GPK,Tango Bistro,4ba56b9cf964a5205e0539e3,50.99217345314099,-114.07091905803837,"[{'icon': {'prefix': 'https://ss3.4sqi.net/img/categories_v2/food/tapas_', 'suffix': '.png'}, 'primary': True, 'pluralName': 'Tapas Restaurants', 'name': 'Tapas Restaurant', 'id': '4bf58dd8d48988d1db931735', 'shortName': 'Tapas'}]"
692,GLENMORE PARK,GPK,Railroad Cafe,4ba50faef964a5206cd738e3,50.982325224144134,-114.10132011042822,"[{'icon': {'prefix': 'https://ss3.4sqi.net/img/categories_v2/food/deli_', 'suffix': '.png'}, 'primary': True, 'pluralName': 'Sandwich Places', 'name': 'Sandwich Place', 'id': '4bf58dd8d48988d1c5941735', 'shortName': 'Sandwiches'}]"
695,GLENMORE PARK,GPK,Belmont Diner,540b2114498e7fb901fb131a,51.024114,-114.107743,"[{'icon': {'prefix': 'https://ss3.4sqi.net/img/categories_v2/food/breakfast_', 'suffix': '.png'}, 'primary': True, 'pluralName': 'Breakfast Spots', 'name': 'Breakfast Spot', 'id': '4bf58dd8d48988d143941735', 'shortName': 'Breakfast'}]"
700,GLENMORE PARK,GPK,Wyckham House,4b0586f1f964a5201e7722e3,51.01372334783689,-114.13274387990427,"[{'icon': {'prefix': 'https://ss3.4sqi.net/img/categories_v2/shops/food_foodcourt_', 'suffix': '.png'}, 'primary': True, 'pluralName': 'Food Courts', 'name': 'Food Court', 'id': '4bf58dd8d48988d120951735', 'shortName': 'Food Court'}]"
704,GLENMORE PARK,GPK,Cheesecake Cafe,4b915ccef964a5204bb633e3,50.98573000118743,-114.07079741989092,"[{'icon': {'prefix': 'https://ss3.4sqi.net/img/categories_v2/food/default_', 'suffix': '.png'}, 'primary': True, 'pluralName': 'American Restaurants', 'name': 'American Restaurant', 'id': '4bf58dd8d48988d14e941735', 'shortName': 'American'}]"
708,GLENMORE PARK,GPK,Tom's House of Pizza,4b5ca0b8f964a520c93a29e3,50.98530851759652,-114.07089644302425,"[{'icon': {'prefix': 'https://ss3.4sqi.net/img/categories_v2/food/pizza_', 'suffix': '.png'}, 'primary': True, 'pluralName': 'Pizza Places', 'name': 'Pizza Place', 'id': '4bf58dd8d48988d1ca941735', 'shortName': 'Pizza'}]"
711,GLENMORE PARK,GPK,Red Lobster,4b68de49f964a520ef902be3,50.998557,-114.070882,"[{'icon': {'prefix': 'https://ss3.4sqi.net/img/categories_v2/food/seafood_', 'suffix': '.png'}, 'primary': True, 'pluralName': 'Seafood Restaurants', 'name': 'Seafood Restaurant', 'id': '4bf58dd8d48988d1ce941735', 'shortName': 'Seafood'}]"
712,GLENMORE PARK,GPK,Open Sesame,4b66201df964a52016152be3,50.99234191842781,-114.07093999480433,"[{'icon': {'prefix': 'https://ss3.4sqi.net/img/categories_v2/food/asian_', 'suffix': '.png'}, 'primary': True, 'pluralName': 'Asian Restaurants', 'name': 'Asian Restaurant', 'id': '4bf58dd8d48988d142941735', 'shortName': 'Asian'}]"
722,GLENMORE PARK,GPK,Subway - Westhills,4bc0ebd22a89ef3b8271f188,51.01712590121503,-114.16908348152015,"[{'icon': {'prefix': 'https://ss3.4sqi.net/img/categories_v2/food/deli_', 'suffix': '.png'}, 'primary': True, 'pluralName': 'Sandwich Places', 'name': 'Sandwich Place', 'id': '4bf58dd8d48988d1c5941735', 'shortName': 'Sandwiches'}]"
729,HAMPTONS,HAM,The Bro'Kin Yolk,55d2021c498eba4db6018255,51.166611939260825,-114.12964596816285,"[{'icon': {'prefix': 'https://ss3.4sqi.net/img/categories_v2/food/breakfast_', 'suffix': '.png'}, 'primary': True, 'pluralName': 'Breakfast Spots', 'name': 'Breakfast Spot', 'id': '4bf58dd8d48988d143941735', 'shortName': 'Breakfast'}]"
730,HAMPTONS,HAM,Euphoria Cafe,4d7fbfba4219a1cdd29f7ad3,51.10361184964671,-114.16510169927415,"[{'icon': {'prefix': 'https://ss3.4sqi.net/img/categories_v2/food/cafe_', 'suffix': '.png'}, 'primary': True, 'pluralName': 'Cafés', 'name': 'Café', 'id': '4bf58dd8d48988d16d941735', 'shortName': 'Café'}]"
732,HAMPTONS,HAM,Roku Japanese Restaurant,533f73a3498e24b8ccd1fb77,51.15236640002238,-114.21132545806347,"[{'icon': {'prefix': 'https://ss3.4sqi.net/img/categories_v2/food/japanese_', 'suffix': '.png'}, 'primary': True, 'pluralName': 'Japanese Restaurants', 'name': 'Japanese Restaurant', 'id': '4bf58dd8d48988d111941735', 'shortName': 'Japanese'}]"
734,HAMPTONS,HAM,Cora’s Breakfast & Lunch,4b0586ecf964a520d07522e3,51.099576169489474,-114.14448953099436,"[{'icon': {'prefix': 'https://ss3.4sqi.net/img/categories_v2/food/breakfast_', 'suffix': '.png'}, 'primary': True, 'pluralName': 'Breakfast Spots', 'name': 'Breakfast Spot', 'id': '4bf58dd8d48988d143941735', 'shortName': 'Breakfast'}]"
736,HAMPTONS,HAM,Good Earth Cafes,4b81986cf964a5207cb130e3,51.16033113053689,-114.12247770794986,"[{'icon': {'prefix': 'https://ss3.4sqi.net/img/categories_v2/food/coffeeshop_', 'suffix': '.png'}, 'primary': True, 'pluralName': 'Coffee Shops', 'name': 'Coffee Shop', 'id': '4bf58dd8d48988d1e0931735', 'shortName': 'Coffee Shop'}]"
737,HAMPTONS,HAM,Wok Box,4b69c270f964a5207cb22be3,51.16349587634544,-114.12716719170582,"[{'icon': {'prefix': 'https://ss3.4sqi.net/img/categories_v2/food/asian_', 'suffix': '.png'}, 'primary': True, 'pluralName': 'Asian Restaurants', 'name': 'Asian Restaurant', 'id': '4bf58dd8d48988d142941735', 'shortName': 'Asian'}]"
762,HAMPTONS,HAM,Matador Pizza,4b0724a5f964a52018f822e3,51.09278046998466,-114.15353548414825,"[{'icon': {'prefix': 'https://ss3.4sqi.net/img/categories_v2/food/pizza_', 'suffix': '.png'}, 'primary': True, 'pluralName': 'Pizza Places', 'name': 'Pizza Place', 'id': '4bf58dd8d48988d1ca941735', 'shortName': 'Pizza'}]"
776,HAMPTONS,HAM,Subway Crowfoot,4b7c5091f964a520ca8b2fe3,51.12568526383344,-114.20798595553288,"[{'icon': {'prefix': 'https://ss3.4sqi.net/img/categories_v2/food/deli_', 'suffix': '.png'}, 'primary': True, 'pluralName': 'Sandwich Places', 'name': 'Sandwich Place', 'id': '4bf58dd8d48988d1c5941735', 'shortName': 'Sandwiches'}]"
777,HAMPTONS,HAM,Sobeys - Royal Oak,4b6b5f86f964a5205f042ce3,51.15148190371839,-114.21344262046189,"[{'icon': {'prefix': 'https://ss3.4sqi.net/img/categories_v2/shops/food_grocery_', 'suffix': '.png'}, 'primary': True, 'pluralName': 'Grocery Stores', 'name': 'Grocery Store', 'id': '4bf58dd8d48988d118951735', 'shortName': 'Grocery Store'}]"
778,ROYAL VISTA,RYV,Roku Japanese Restaurant,533f73a3498e24b8ccd1fb77,51.15236640002238,-114.21132545806347,"[{'icon': {'prefix': 'https://ss3.4sqi.net/img/categories_v2/food/japanese_', 'suffix': '.png'}, 'primary': True, 'pluralName': 'Japanese Restaurants', 'name': 'Japanese Restaurant', 'id': '4bf58dd8d48988d111941735', 'shortName': 'Japanese'}]"
782,ROYAL VISTA,RYV,Euphoria Cafe,4d7fbfba4219a1cdd29f7ad3,51.10361184964671,-114.16510169927415,"[{'icon': {'prefix': 'https://ss3.4sqi.net/img/categories_v2/food/cafe_', 'suffix': '.png'}, 'primary': True, 'pluralName': 'Cafés', 'name': 'Café', 'id': '4bf58dd8d48988d16d941735', 'shortName': 'Café'}]"
784,ROYAL VISTA,RYV,The Bro'Kin Yolk,55d2021c498eba4db6018255,51.166611939260825,-114.12964596816285,"[{'icon': {'prefix': 'https://ss3.4sqi.net/img/categories_v2/food/breakfast_', 'suffix': '.png'}, 'primary': True, 'pluralName': 'Breakfast Spots', 'name': 'Breakfast Spot', 'id': '4bf58dd8d48988d143941735', 'shortName': 'Breakfast'}]"
785,ROYAL VISTA,RYV,Angels Drive In,4bad5391f964a52075463be3,51.09475752425708,-114.21124940465485,"[{'icon': {'prefix': 'https://ss3.4sqi.net/img/categories_v2/food/diner_', 'suffix': '.png'}, 'primary': True, 'pluralName': 'Diners', 'name': 'Diner', 'id': '4bf58dd8d48988d147941735', 'shortName': 'Diner'}]"
786,ROYAL VISTA,RYV,Cora’s Breakfast & Lunch,4b0586ecf964a520d07522e3,51.099576169489474,-114.14448953099436,"[{'icon': {'prefix': 'https://ss3.4sqi.net/img/categories_v2/food/breakfast_', 'suffix': '.png'}, 'primary': True, 'pluralName': 'Breakfast Spots', 'name': 'Breakfast Spot', 'id': '4bf58dd8d48988d143941735', 'shortName': 'Breakfast'}]"
789,ROYAL VISTA,RYV,Cadence Coffee,4b1d2499f964a520350c24e3,51.085703708631584,-114.18054650037912,"[{'icon': {'prefix': 'https://ss3.4sqi.net/img/categories_v2/food/coffeeshop_', 'suffix': '.png'}, 'primary': True, 'pluralName': 'Coffee Shops', 'name': 'Coffee Shop', 'id': '4bf58dd8d48988d1e0931735', 'shortName': 'Coffee Shop'}]"
794,ROYAL VISTA,RYV,Good Earth Cafes,4b81986cf964a5207cb130e3,51.16033113053689,-114.12247770794986,"[{'icon': {'prefix': 'https://ss3.4sqi.net/img/categories_v2/food/coffeeshop_', 'suffix': '.png'}, 'primary': True, 'pluralName': 'Coffee Shops', 'name': 'Coffee Shop', 'id': '4bf58dd8d48988d1e0931735', 'shortName': 'Coffee Shop'}]"
795,ROYAL VISTA,RYV,Wok Box,4b69c270f964a5207cb22be3,51.16349587634544,-114.12716719170582,"[{'icon': {'prefix': 'https://ss3.4sqi.net/img/categories_v2/food/asian_', 'suffix': '.png'}, 'primary': True, 'pluralName': 'Asian Restaurants', 'name': 'Asian Restaurant', 'id': '4bf58dd8d48988d142941735', 'shortName': 'Asian'}]"
797,ROYAL VISTA,RYV,Dell Cafe,4ba51b6ff964a52014de38e3,51.08956861369545,-114.20079548771108,"[{'icon': {'prefix': 'https://ss3.4sqi.net/img/categories_v2/food/cafe_', 'suffix': '.png'}, 'primary': True, 'pluralName': 'Cafés', 'name': 'Café', 'id': '4bf58dd8d48988d16d941735', 'shortName': 'Café'}]"
808,ROYAL VISTA,RYV,Sobeys - Royal Oak,4b6b5f86f964a5205f042ce3,51.15148190371839,-114.21344262046189,"[{'icon': {'prefix': 'https://ss3.4sqi.net/img/categories_v2/shops/food_grocery_', 'suffix': '.png'}, 'primary': True, 'pluralName': 'Grocery Stores', 'name': 'Grocery Store', 'id': '4bf58dd8d48988d118951735', 'shortName': 'Grocery Store'}]"
809,ROYAL VISTA,RYV,Tuscany Subway,4b537001f964a520d99c27e3,51.124135069034104,-114.24840470929412,"[{'icon': {'prefix': 'https://ss3.4sqi.net/img/categories_v2/food/deli_', 'suffix': '.png'}, 'primary': True, 'pluralName': 'Sandwich Places', 'name': 'Sandwich Place', 'id': '4bf58dd8d48988d1c5941735', 'shortName': 'Sandwiches'}]"
813,ROYAL VISTA,RYV,Subway Crowfoot,4b7c5091f964a520ca8b2fe3,51.12568526383344,-114.20798595553288,"[{'icon': {'prefix': 'https://ss3.4sqi.net/img/categories_v2/food/deli_', 'suffix': '.png'}, 'primary': True, 'pluralName': 'Sandwich Places', 'name': 'Sandwich Place', 'id': '4bf58dd8d48988d1c5941735', 'shortName': 'Sandwiches'}]"
814,ROYAL VISTA,RYV,Matador Pizza,4b0724a5f964a52018f822e3,51.09278046998466,-114.15353548414825,"[{'icon': {'prefix': 'https://ss3.4sqi.net/img/categories_v2/food/pizza_', 'suffix': '.png'}, 'primary': True, 'pluralName': 'Pizza Places', 'name': 'Pizza Place', 'id': '4bf58dd8d48988d1ca941735', 'shortName': 'Pizza'}]"
820,ROYAL VISTA,RYV,Food Court,4b6b830df964a520440d2ce3,51.08512107883832,-114.15404720669298,"[{'icon': {'prefix': 'https://ss3.4sqi.net/img/categories_v2/shops/food_foodcourt_', 'suffix': '.png'}, 'primary': True, 'pluralName': 'Food Courts', 'name': 'Food Court', 'id': '4bf58dd8d48988d120951735', 'shortName': 'Food Court'}]"
822,ROYAL VISTA,RYV,EggsOasis,5113d4c9e4b0345565e6b5c9,51.12698607157032,-114.19849691646715,"[{'icon': {'prefix': 'https://ss3.4sqi.net/img/categories_v2/food/breakfast_', 'suffix': '.png'}, 'primary': True, 'pluralName': 'Breakfast Spots', 'name': 'Breakfast Spot', 'id': '4bf58dd8d48988d143941735', 'shortName': 'Breakfast'}]"
829,MERIDIAN,MER,Chapters,4b0ea62ff964a5204d5923e3,51.075447026059514,-113.99101998178733,"[{'icon': {'prefix': 'https://ss3.4sqi.net/img/categories_v2/shops/bookstore_', 'suffix': '.png'}, 'primary': True, 'pluralName': 'Bookstores', 'name': 'Bookstore', 'id': '4bf58dd8d48988d114951735', 'shortName': 'Bookstore'}]"
830,MERIDIAN,MER,Kings Restaurant,4b7aeeeaf964a52004472fe3,51.052640536529026,-114.00086003335883,"[{'icon': {'prefix': 'https://ss3.4sqi.net/img/categories_v2/food/asian_', 'suffix': '.png'}, 'primary': True, 'pluralName': 'Chinese Restaurants', 'name': 'Chinese Restaurant', 'id': '4bf58dd8d48988d145941735', 'shortName': 'Chinese'}]"
831,MERIDIAN,MER,Shawarma Palace,4bf0b12e21072d7fc449208b,51.037969176718356,-113.97908643380909,"[{'icon': {'prefix': 'https://ss3.4sqi.net/img/categories_v2/food/falafel_', 'suffix': '.png'}, 'primary': True, 'pluralName': 'Falafel Restaurants', 'name': 'Falafel Restaurant', 'id': '4bf58dd8d48988d10b941735', 'shortName': 'Falafel'}]"
832,MERIDIAN,MER,Pacific Hut Restaurant,4b0586ecf964a520c07522e3,51.03692238262008,-113.98876716446624,"[{'icon': {'prefix': 'https://ss3.4sqi.net/img/categories_v2/food/asian_', 'suffix': '.png'}, 'primary': True, 'pluralName': 'Asian Restaurants', 'name': 'Asian Restaurant', 'id': '4bf58dd8d48988d142941735', 'shortName': 'Asian'}]"
833,MERIDIAN,MER,Gravity Espresso & Wine Bar,4f60a294e4b00cb4e0710e4f,51.04228941529499,-114.03797728808385,"[{'icon': {'prefix': 'https://ss3.4sqi.net/img/categories_v2/food/coffeeshop_', 'suffix': '.png'}, 'primary': True, 'pluralName': 'Coffee Shops', 'name': 'Coffee Shop', 'id': '4bf58dd8d48988d1e0931735', 'shortName': 'Coffee Shop'}]"
838,MERIDIAN,MER,Blackfoot Diner,4b51e6ddf964a5206b5a27e3,51.03646549861947,-114.02038675227006,"[{'icon': {'prefix': 'https://ss3.4sqi.net/img/categories_v2/food/diner_', 'suffix': '.png'}, 'primary': True, 'pluralName': 'Diners', 'name': 'Diner', 'id': '4bf58dd8d48988d147941735', 'shortName': 'Diner'}]"
843,MERIDIAN,MER,Cora,4e52729dfa7687935fbb3ff8,51.07454642250958,-113.98448727460058,"[{'icon': {'prefix': 'https://ss3.4sqi.net/img/categories_v2/food/breakfast_', 'suffix': '.png'}, 'primary': True, 'pluralName': 'Breakfast Spots', 'name': 'Breakfast Spot', 'id': '4bf58dd8d48988d143941735', 'shortName': 'Breakfast'}]"
845,MERIDIAN,MER,The Fine Diner,4f96f3f5e4b0489d4e516f0c,51.039833131715696,-114.03051567199022,"[{'icon': {'prefix': 'https://ss3.4sqi.net/img/categories_v2/food/diner_', 'suffix': '.png'}, 'primary': True, 'pluralName': 'Diners', 'name': 'Diner', 'id': '4bf58dd8d48988d147941735', 'shortName': 'Diner'}]"
846,MERIDIAN,MER,The Main Dish,4b083712f964a520770623e3,51.052985214997534,-114.04145628980447,"[{'icon': {'prefix': 'https://ss3.4sqi.net/img/categories_v2/food/deli_', 'suffix': '.png'}, 'primary': True, 'pluralName': 'Sandwich Places', 'name': 'Sandwich Place', 'id': '4bf58dd8d48988d1c5941735', 'shortName': 'Sandwiches'}]"
847,MERIDIAN,MER,White Spot Barlow Trail,4b0feb20f964a5203f6623e3,51.08215111304877,-114.00426084731332,"[{'icon': {'prefix': 'https://ss3.4sqi.net/img/categories_v2/food/breakfast_', 'suffix': '.png'}, 'primary': True, 'pluralName': 'Breakfast Spots', 'name': 'Breakfast Spot', 'id': '4bf58dd8d48988d143941735', 'shortName': 'Breakfast'}]"
848,MERIDIAN,MER,Noodle King,4b97ef01f964a520722035e3,51.079927723178976,-114.005547568727,"[{'icon': {'prefix': 'https://ss3.4sqi.net/img/categories_v2/food/vietnamese_', 'suffix': '.png'}, 'primary': True, 'pluralName': 'Vietnamese Restaurants', 'name': 'Vietnamese Restaurant', 'id': '4bf58dd8d48988d14a941735', 'shortName': 'Vietnamese'}]"
851,MERIDIAN,MER,The Hose and Hound Neighbourhood Pub,4b0586e7f964a520ea7322e3,51.042411277847954,-114.03722444791974,"[{'icon': {'prefix': 'https://ss3.4sqi.net/img/categories_v2/nightlife/pub_', 'suffix': '.png'}, 'primary': True, 'pluralName': 'Pubs', 'name': 'Pub', 'id': '4bf58dd8d48988d11b941735', 'shortName': 'Pub'}]"
859,MERIDIAN,MER,Ric's Lounge & Grill,4c24cc99a852c928caace36c,51.071218730352484,-113.99911574102899,"[{'icon': {'prefix': 'https://ss3.4sqi.net/img/categories_v2/food/default_', 'suffix': '.png'}, 'primary': True, 'pluralName': 'American Restaurants', 'name': 'American Restaurant', 'id': '4bf58dd8d48988d14e941735', 'shortName': 'American'}]"
862,MERIDIAN,MER,Bite Groceteria,4b918a2cf964a520f3c333e3,51.042260071840325,-114.03817489516251,"[{'icon': {'prefix': 'https://ss3.4sqi.net/img/categories_v2/shops/food_grocery_', 'suffix': '.png'}, 'primary': True, 'pluralName': 'Grocery Stores', 'name': 'Grocery Store', 'id': '4bf58dd8d48988d118951735', 'shortName': 'Grocery Store'}]"
869,MERIDIAN,MER,Sunridge Mall,4b088f57f964a5206a0e23e3,51.07434679273511,-113.98592669558967,"[{'icon': {'prefix': 'https://ss3.4sqi.net/img/categories_v2/shops/mall_', 'suffix': '.png'}, 'primary': True, 'pluralName': 'Shopping Malls', 'name': 'Shopping Mall', 'id': '4bf58dd8d48988d1fd941735', 'shortName': 'Mall'}]"
870,MERIDIAN,MER,Perkins Family Restaurant,4b5c9711f964a520713829e3,51.080382133376986,-114.00291942007895,"[{'icon': {'prefix': 'https://ss3.4sqi.net/img/categories_v2/food/default_', 'suffix': '.png'}, 'primary': True, 'pluralName': 'American Restaurants', 'name': 'American Restaurant', 'id': '4bf58dd8d48988d14e941735', 'shortName': 'American'}]"
871,MERIDIAN,MER,Humptys Family Restaurant,4c9f91f62fb1a1437001f540,51.059811,-113.98108928185113,"[{'icon': {'prefix': 'https://ss3.4sqi.net/img/categories_v2/food/breakfast_', 'suffix': '.png'}, 'primary': True, 'pluralName': 'Breakfast Spots', 'name': 'Breakfast Spot', 'id': '4bf58dd8d48988d143941735', 'shortName': 'Breakfast'}]"
872,MERIDIAN,MER,Vern's Pizza,4b4560a4f964a520a50b26e3,51.04787363751442,-113.99033972803173,"[{'icon': {'prefix': 'https://ss3.4sqi.net/img/categories_v2/food/pizza_', 'suffix': '.png'}, 'primary': True, 'pluralName': 'Pizza Places', 'name': 'Pizza Place', 'id': '4bf58dd8d48988d1ca941735', 'shortName': 'Pizza'}]"
875,MERIDIAN,MER,Smitty's,4c94dbbcf7cfa1cd3e8eb715,51.05612572060935,-113.97919475286386,"[{'icon': {'prefix': 'https://ss3.4sqi.net/img/categories_v2/food/breakfast_', 'suffix': '.png'}, 'primary': True, 'pluralName': 'Breakfast Spots', 'name': 'Breakfast Spot', 'id': '4bf58dd8d48988d143941735', 'shortName': 'Breakfast'}]"
876,MERIDIAN,MER,Horizons Bistro,4d4703ddbefe236a6c940ee3,51.064916,-113.984866,"[{'icon': {'prefix': 'https://ss3.4sqi.net/img/categories_v2/food/breakfast_', 'suffix': '.png'}, 'primary': True, 'pluralName': 'Breakfast Spots', 'name': 'Breakfast Spot', 'id': '4bf58dd8d48988d143941735', 'shortName': 'Breakfast'}]"
878,MAYLAND,MLI,Gravity Espresso & Wine Bar,4f60a294e4b00cb4e0710e4f,51.04228941529499,-114.03797728808385,"[{'icon': {'prefix': 'https://ss3.4sqi.net/img/categories_v2/food/coffeeshop_', 'suffix': '.png'}, 'primary': True, 'pluralName': 'Coffee Shops', 'name': 'Coffee Shop', 'id': '4bf58dd8d48988d1e0931735', 'shortName': 'Coffee Shop'}]"
879,MAYLAND,MLI,Over Easy Breakfast,4b379da0f964a520134325e3,51.05317318370574,-114.04412627220154,"[{'icon': {'prefix': 'https://ss3.4sqi.net/img/categories_v2/food/breakfast_', 'suffix': '.png'}, 'primary': True, 'pluralName': 'Breakfast Spots', 'name': 'Breakfast Spot', 'id': '4bf58dd8d48988d143941735', 'shortName': 'Breakfast'}]"
880,MAYLAND,MLI,Blue Star Diner,4e4a98cb62847afcaf180933,51.05323399650723,-114.04491803735235,"[{'icon': {'prefix': 'https://ss3.4sqi.net/img/categories_v2/food/diner_', 'suffix': '.png'}, 'primary': True, 'pluralName': 'Diners', 'name': 'Diner', 'id': '4bf58dd8d48988d147941735', 'shortName': 'Diner'}]"
882,MAYLAND,MLI,Kings Restaurant,4b7aeeeaf964a52004472fe3,51.052640536529026,-114.00086003335883,"[{'icon': {'prefix': 'https://ss3.4sqi.net/img/categories_v2/food/asian_', 'suffix': '.png'}, 'primary': True, 'pluralName': 'Chinese Restaurants', 'name': 'Chinese Restaurant', 'id': '4bf58dd8d48988d145941735', 'shortName': 'Chinese'}]"
883,MAYLAND,MLI,The Deane House Restaurant,4b0586eaf964a520317522e3,51.043730929819226,-114.04194095802966,"[{'icon': {'prefix': 'https://ss3.4sqi.net/img/categories_v2/food/default_', 'suffix': '.png'}, 'primary': True, 'pluralName': 'Restaurants', 'name': 'Restaurant', 'id': '4bf58dd8d48988d1c4941735', 'shortName': 'Restaurant'}]"
884,MAYLAND,MLI,Diner Deluxe,4b117d6ef964a520ac7d23e3,51.05857001803054,-114.05412091856454,"[{'icon': {'prefix': 'https://ss3.4sqi.net/img/categories_v2/food/diner_', 'suffix': '.png'}, 'primary': True, 'pluralName': 'Diners', 'name': 'Diner', 'id': '4bf58dd8d48988d147941735', 'shortName': 'Diner'}]"
885,MAYLAND,MLI,Pacific Hut Restaurant,4b0586ecf964a520c07522e3,51.03692238262008,-113.98876716446624,"[{'icon': {'prefix': 'https://ss3.4sqi.net/img/categories_v2/food/asian_', 'suffix': '.png'}, 'primary': True, 'pluralName': 'Asian Restaurants', 'name': 'Asian Restaurant', 'id': '4bf58dd8d48988d142941735', 'shortName': 'Asian'}]"
886,MAYLAND,MLI,Red's in Ramsay,5259ae48498e7ef385fc5413,51.03998265683814,-114.04196509485027,"[{'icon': {'prefix': 'https://ss3.4sqi.net/img/categories_v2/food/breakfast_', 'suffix': '.png'}, 'primary': True, 'pluralName': 'Breakfast Spots', 'name': 'Breakfast Spot', 'id': '4bf58dd8d48988d143941735', 'shortName': 'Breakfast'}]"
887,MAYLAND,MLI,Blackfoot Diner,4b51e6ddf964a5206b5a27e3,51.03646549861947,-114.02038675227006,"[{'icon': {'prefix': 'https://ss3.4sqi.net/img/categories_v2/food/diner_', 'suffix': '.png'}, 'primary': True, 'pluralName': 'Diners', 'name': 'Diner', 'id': '4bf58dd8d48988d147941735', 'shortName': 'Diner'}]"
888,MAYLAND,MLI,Sidewalk Citizen Bakery,55be8a30498eeabf4dfad006,51.04795216155776,-114.04992423029985,"[{'icon': {'prefix': 'https://ss3.4sqi.net/img/categories_v2/food/bakery_', 'suffix': '.png'}, 'primary': True, 'pluralName': 'Bakeries', 'name': 'Bakery', 'id': '4bf58dd8d48988d16a941735', 'shortName': 'Bakery'}]"
889,MAYLAND,MLI,Shawarma Palace,4bf0b12e21072d7fc449208b,51.037969176718356,-113.97908643380909,"[{'icon': {'prefix': 'https://ss3.4sqi.net/img/categories_v2/food/falafel_', 'suffix': '.png'}, 'primary': True, 'pluralName': 'Falafel Restaurants', 'name': 'Falafel Restaurant', 'id': '4bf58dd8d48988d10b941735', 'shortName': 'Falafel'}]"
890,MAYLAND,MLI,Chapters,4b0ea62ff964a5204d5923e3,51.075447026059514,-113.99101998178733,"[{'icon': {'prefix': 'https://ss3.4sqi.net/img/categories_v2/shops/bookstore_', 'suffix': '.png'}, 'primary': True, 'pluralName': 'Bookstores', 'name': 'Bookstore', 'id': '4bf58dd8d48988d114951735', 'shortName': 'Bookstore'}]"
892,MAYLAND,MLI,Cinquecento Cucina,5175f4b0e4b0d6b348d78208,51.04268895648312,-114.03934852254264,"[{'icon': {'prefix': 'https://ss3.4sqi.net/img/categories_v2/food/italian_', 'suffix': '.png'}, 'primary': True, 'pluralName': 'Italian Restaurants', 'name': 'Italian Restaurant', 'id': '4bf58dd8d48988d110941735', 'shortName': 'Italian'}]"
893,MAYLAND,MLI,charbar,557c6201498ec1b1d68e0d93,51.04799680370379,-114.0498146193752,"[{'icon': {'prefix': 'https://ss3.4sqi.net/img/categories_v2/food/argentinian_', 'suffix': '.png'}, 'primary': True, 'pluralName': 'Argentinian Restaurants', 'name': 'Argentinian Restaurant', 'id': '4bf58dd8d48988d107941735', 'shortName': 'Argentinian'}]"
895,MAYLAND,MLI,The Fine Diner,4f96f3f5e4b0489d4e516f0c,51.039833131715696,-114.03051567199022,"[{'icon': {'prefix': 'https://ss3.4sqi.net/img/categories_v2/food/diner_', 'suffix': '.png'}, 'primary': True, 'pluralName': 'Diners', 'name': 'Diner', 'id': '4bf58dd8d48988d147941735', 'shortName': 'Diner'}]"
896,MAYLAND,MLI,Fort Calgary,4b0586e9f964a520db7422e3,51.04486061381713,-114.04495467658666,"[{'icon': {'prefix': 'https://ss3.4sqi.net/img/categories_v2/arts_entertainment/museum_history_', 'suffix': '.png'}, 'primary': True, 'pluralName': 'History Museums', 'name': 'History Museum', 'id': '4bf58dd8d48988d190941735', 'shortName': 'History Museum'}]"
897,MAYLAND,MLI,The Main Dish,4b083712f964a520770623e3,51.052985214997534,-114.04145628980447,"[{'icon': {'prefix': 'https://ss3.4sqi.net/img/categories_v2/food/deli_', 'suffix': '.png'}, 'primary': True, 'pluralName': 'Sandwich Places', 'name': 'Sandwich Place', 'id': '4bf58dd8d48988d1c5941735', 'shortName': 'Sandwiches'}]"
899,MAYLAND,MLI,The Hose and Hound Neighbourhood Pub,4b0586e7f964a520ea7322e3,51.042411277847954,-114.03722444791974,"[{'icon': {'prefix': 'https://ss3.4sqi.net/img/categories_v2/nightlife/pub_', 'suffix': '.png'}, 'primary': True, 'pluralName': 'Pubs', 'name': 'Pub', 'id': '4bf58dd8d48988d11b941735', 'shortName': 'Pub'}]"
907,MAYLAND,MLI,Noodle King,4b97ef01f964a520722035e3,51.079927723178976,-114.005547568727,"[{'icon': {'prefix': 'https://ss3.4sqi.net/img/categories_v2/food/vietnamese_', 'suffix': '.png'}, 'primary': True, 'pluralName': 'Vietnamese Restaurants', 'name': 'Vietnamese Restaurant', 'id': '4bf58dd8d48988d14a941735', 'shortName': 'Vietnamese'}]"
908,MAYLAND,MLI,Cora,4e52729dfa7687935fbb3ff8,51.07454642250958,-113.98448727460058,"[{'icon': {'prefix': 'https://ss3.4sqi.net/img/categories_v2/food/breakfast_', 'suffix': '.png'}, 'primary': True, 'pluralName': 'Breakfast Spots', 'name': 'Breakfast Spot', 'id': '4bf58dd8d48988d143941735', 'shortName': 'Breakfast'}]"
912,MAYLAND,MLI,Bite Groceteria,4b918a2cf964a520f3c333e3,51.042260071840325,-114.03817489516251,"[{'icon': {'prefix': 'https://ss3.4sqi.net/img/categories_v2/shops/food_grocery_', 'suffix': '.png'}, 'primary': True, 'pluralName': 'Grocery Stores', 'name': 'Grocery Store', 'id': '4bf58dd8d48988d118951735', 'shortName': 'Grocery Store'}]"
913,MAYLAND,MLI,Spicy Hut,4b0586e7f964a5201b7422e3,51.0514073,-114.0516808,"[{'icon': {'prefix': 'https://ss3.4sqi.net/img/categories_v2/food/cafe_', 'suffix': '.png'}, 'primary': True, 'pluralName': 'Cafés', 'name': 'Café', 'id': '4bf58dd8d48988d16d941735', 'shortName': 'Café'}]"
919,MAYLAND,MLI,Ric's Lounge & Grill,4c24cc99a852c928caace36c,51.071218730352484,-113.99911574102899,"[{'icon': {'prefix': 'https://ss3.4sqi.net/img/categories_v2/food/default_', 'suffix': '.png'}, 'primary': True, 'pluralName': 'American Restaurants', 'name': 'American Restaurant', 'id': '4bf58dd8d48988d14e941735', 'shortName': 'American'}]"
922,MAYLAND,MLI,Kane's Harley Diner,4b0586eaf964a5202c7522e3,51.0418133959936,-114.03617420295328,"[{'icon': {'prefix': 'https://ss3.4sqi.net/img/categories_v2/food/diner_', 'suffix': '.png'}, 'primary': True, 'pluralName': 'Diners', 'name': 'Diner', 'id': '4bf58dd8d48988d147941735', 'shortName': 'Diner'}]"
925,MAYLAND,MLI,Perkins Family Restaurant,4b5c9711f964a520713829e3,51.080382133376986,-114.00291942007895,"[{'icon': {'prefix': 'https://ss3.4sqi.net/img/categories_v2/food/default_', 'suffix': '.png'}, 'primary': True, 'pluralName': 'American Restaurants', 'name': 'American Restaurant', 'id': '4bf58dd8d48988d14e941735', 'shortName': 'American'}]"
926,MAYLAND,MLI,Sunridge Mall,4b088f57f964a5206a0e23e3,51.07434679273511,-113.98592669558967,"[{'icon': {'prefix': 'https://ss3.4sqi.net/img/categories_v2/shops/mall_', 'suffix': '.png'}, 'primary': True, 'pluralName': 'Shopping Malls', 'name': 'Shopping Mall', 'id': '4bf58dd8d48988d1fd941735', 'shortName': 'Mall'}]"
927,MAYLAND,MLI,Vern's Pizza,4b4560a4f964a520a50b26e3,51.04787363751442,-113.99033972803173,"[{'icon': {'prefix': 'https://ss3.4sqi.net/img/categories_v2/food/pizza_', 'suffix': '.png'}, 'primary': True, 'pluralName': 'Pizza Places', 'name': 'Pizza Place', 'id': '4bf58dd8d48988d1ca941735', 'shortName': 'Pizza'}]"
928,13H,13H,Sobeys - Silverado,50678212e4b05eea7005f93a,50.879469762944645,-114.07275968770998,"[{'icon': {'prefix': 'https://ss3.4sqi.net/img/categories_v2/shops/food_grocery_', 'suffix': '.png'}, 'primary': True, 'pluralName': 'Grocery Stores', 'name': 'Grocery Store', 'id': '4bf58dd8d48988d118951735', 'shortName': 'Grocery Store'}]"
930,13H,13H,East Side Mario's,4b5fa590f964a52046c629e3,50.907708032241246,-114.06506729943517,"[{'icon': {'prefix': 'https://ss3.4sqi.net/img/categories_v2/food/italian_', 'suffix': '.png'}, 'primary': True, 'pluralName': 'Italian Restaurants', 'name': 'Italian Restaurant', 'id': '4bf58dd8d48988d110941735', 'shortName': 'Italian'}]"
933,13H,13H,Cornerstone Music Cafe,4e8f9d6977c89cb921680c21,50.93033511699858,-114.02555798853949,"[{'icon': {'prefix': 'https://ss3.4sqi.net/img/categories_v2/arts_entertainment/musicvenue_', 'suffix': '.png'}, 'primary': True, 'pluralName': 'Music Venues', 'name': 'Music Venue', 'id': '4bf58dd8d48988d1e5931735', 'shortName': 'Music Venue'}]"
934,13H,13H,Good Earth Coffee House,4bc9dfb3cc8cd13aa050bccf,50.87960176501044,-113.97625770183544,"[{'icon': {'prefix': 'https://ss3.4sqi.net/img/categories_v2/food/cafe_', 'suffix': '.png'}, 'primary': True, 'pluralName': 'Cafés', 'name': 'Café', 'id': '4bf58dd8d48988d16d941735', 'shortName': 'Café'}]"
935,13H,13H,Patisserie Du Soleli,4cc753a4ee718cfaccebb03d,50.94067111727368,-114.12116701788493,"[{'icon': {'prefix': 'https://ss3.4sqi.net/img/categories_v2/food/bakery_', 'suffix': '.png'}, 'primary': True, 'pluralName': 'Bakeries', 'name': 'Bakery', 'id': '4bf58dd8d48988d16a941735', 'shortName': 'Bakery'}]"
949,13H,13H,White Spot MacLeod Trail,4bd0d7cb41b9ef3b8bf5fae5,50.959873749712564,-114.07081511091606,"[{'icon': {'prefix': 'https://ss3.4sqi.net/img/categories_v2/food/breakfast_', 'suffix': '.png'}, 'primary': True, 'pluralName': 'Breakfast Spots', 'name': 'Breakfast Spot', 'id': '4bf58dd8d48988d143941735', 'shortName': 'Breakfast'}]"
951,13H,13H,Windsor Rose,4ed3ab64775bbb5f36adc484,50.875968443759476,-114.03749689547215,"[{'icon': {'prefix': 'https://ss3.4sqi.net/img/categories_v2/food/gastropub_', 'suffix': '.png'}, 'primary': True, 'pluralName': 'Gastropubs', 'name': 'Gastropub', 'id': '4bf58dd8d48988d155941735', 'shortName': 'Gastropub'}]"
952,13H,13H,Subway (Bridlewood),4b887780f964a52009fa31e3,50.906053783153304,-114.11106988910657,"[{'icon': {'prefix': 'https://ss3.4sqi.net/img/categories_v2/food/deli_', 'suffix': '.png'}, 'primary': True, 'pluralName': 'Sandwich Places', 'name': 'Sandwich Place', 'id': '4bf58dd8d48988d1c5941735', 'shortName': 'Sandwiches'}]"
964,13H,13H,Good Earth Cranston,4be72b352468c928682f0243,50.87967295413597,-113.97636066077122,"[{'icon': {'prefix': 'https://ss3.4sqi.net/img/categories_v2/food/cafe_', 'suffix': '.png'}, 'primary': True, 'pluralName': 'Cafés', 'name': 'Café', 'id': '4bf58dd8d48988d16d941735', 'shortName': 'Café'}]"
969,13H,13H,Lighthouse Pub,4bc14fa4b492d13a25fba560,50.92805716925017,-114.0279147330096,"[{'icon': {'prefix': 'https://ss3.4sqi.net/img/categories_v2/nightlife/pub_', 'suffix': '.png'}, 'primary': True, 'pluralName': 'Pubs', 'name': 'Pub', 'id': '4bf58dd8d48988d11b941735', 'shortName': 'Pub'}]"
970,13H,13H,IHOP Restaurant,50b0f570e4b0b7c94b1e23f9,50.90469457640405,-114.06585992707777,"[{'icon': {'prefix': 'https://ss3.4sqi.net/img/categories_v2/food/breakfast_', 'suffix': '.png'}, 'primary': True, 'pluralName': 'Breakfast Spots', 'name': 'Breakfast Spot', 'id': '4bf58dd8d48988d143941735', 'shortName': 'Breakfast'}]"
978,NOSE HILL PARK,NPK,Euphoria Cafe,4d7fbfba4219a1cdd29f7ad3,51.10361184964671,-114.16510169927415,"[{'icon': {'prefix': 'https://ss3.4sqi.net/img/categories_v2/food/cafe_', 'suffix': '.png'}, 'primary': True, 'pluralName': 'Cafés', 'name': 'Café', 'id': '4bf58dd8d48988d16d941735', 'shortName': 'Café'}]"
979,NOSE HILL PARK,NPK,Cora’s Breakfast & Lunch,4b0586ecf964a520d07522e3,51.099576169489474,-114.14448953099436,"[{'icon': {'prefix': 'https://ss3.4sqi.net/img/categories_v2/food/breakfast_', 'suffix': '.png'}, 'primary': True, 'pluralName': 'Breakfast Spots', 'name': 'Breakfast Spot', 'id': '4bf58dd8d48988d143941735', 'shortName': 'Breakfast'}]"
